{
  "Sumatera Barat": [
    {
      "id": 1213459,
      "name": "Tiku",
      "coord": {
        "lon": 99.923073,
        "lat": -0.3958
      }
    },
    {
      "id": 1214449,
      "name": "Sikabaluan",
      "coord": {
        "lon": 98.992172,
        "lat": -1.11961
      }
    },
    {
      "id": 1214451,
      "name": "Muara Siberut",
      "coord": {
        "lon": 99.210968,
        "lat": -1.59787
      }
    },
    {
      "id": 1624873,
      "name": "Tanjungpati",
      "coord": {
        "lon": 100.67997,
        "lat": -0.16046
      }
    },
    {
      "id": 1624930,
      "name": "Tanjunggadang",
      "coord": {
        "lon": 100.738403,
        "lat": -0.30126
      }
    },
    {
      "id": 1625439,
      "name": "Talawi",
      "coord": {
        "lon": 100.739792,
        "lat": -0.59745
      }
    },
    {
      "id": 1625693,
      "name": "Tabing",
      "coord": {
        "lon": 100.342789,
        "lat": -0.87203
      }
    },
    {
      "id": 1625797,
      "name": "Surian",
      "coord": {
        "lon": 100.881287,
        "lat": -1.25587
      }
    },
    {
      "id": 1625956,
      "name": "Sungailimau",
      "coord": {
        "lon": 100.061707,
        "lat": -0.51638
      }
    },
    {
      "id": 1626197,
      "name": "Provinsi Sumatera Barat",
      "coord": {
        "lon": 100.5,
        "lat": -1.0
      }
    },
    {
      "id": 1626219,
      "name": "Sulitair",
      "coord": {
        "lon": 100.647881,
        "lat": -0.61258
      }
    },
    {
      "id": 1626649,
      "name": "Solok",
      "coord": {
        "lon": 100.659317,
        "lat": -0.79183
      }
    },
    {
      "id": 1626920,
      "name": "Singkarak",
      "coord": {
        "lon": 100.603348,
        "lat": -0.69089
      }
    },
    {
      "id": 1627185,
      "name": "Sijunjung",
      "coord": {
        "lon": 100.953651,
        "lat": -0.68762
      }
    },
    {
      "id": 1628472,
      "name": "Sawahlunto",
      "coord": {
        "lon": 100.807152,
        "lat": -0.67483
      }
    },
    {
      "id": 1628568,
      "name": "Saruaso",
      "coord": {
        "lon": 100.637657,
        "lat": -0.4831
      }
    },
    {
      "id": 1631905,
      "name": "Payakumbuh",
      "coord": {
        "lon": 100.630783,
        "lat": -0.22019
      }
    },
    {
      "id": 1632237,
      "name": "Pasarbaru",
      "coord": {
        "lon": 100.509949,
        "lat": -1.3051
      }
    },
    {
      "id": 1632334,
      "name": "Pariaman",
      "coord": {
        "lon": 100.119972,
        "lat": -0.61898
      }
    },
    {
      "id": 1633068,
      "name": "Palembaian",
      "coord": {
        "lon": 100.23333,
        "lat": -0.18333
      }
    },
    {
      "id": 1633375,
      "name": "Padangpanjang",
      "coord": {
        "lon": 100.40226,
        "lat": -0.46721
      }
    },
    {
      "id": 1633419,
      "name": "Padang",
      "coord": {
        "lon": 100.354271,
        "lat": -0.94924
      }
    },
    {
      "id": 1635830,
      "name": "Matur",
      "coord": {
        "lon": 100.288017,
        "lat": -0.27877
      }
    },
    {
      "id": 1636333,
      "name": "Maninjau",
      "coord": {
        "lon": 100.226707,
        "lat": -0.30059
      }
    },
    {
      "id": 1637193,
      "name": "Lubukbergalung",
      "coord": {
        "lon": 100.400108,
        "lat": -0.96076
      }
    },
    {
      "id": 1637197,
      "name": "Lubukalung",
      "coord": {
        "lon": 100.318558,
        "lat": -0.68321
      }
    },
    {
      "id": 1647866,
      "name": "Bukittinggi",
      "coord": {
        "lon": 100.370552,
        "lat": -0.30907
      }
    },
    {
      "id": 1648197,
      "name": "Bonjol",
      "coord": {
        "lon": 100.227478,
        "lat": -0.01785
      }
    },
    {
      "id": 1649575,
      "name": "Batusangkar",
      "coord": {
        "lon": 100.626801,
        "lat": -0.45624
      }
    },
    {
      "id": 1649904,
      "name": "Baso",
      "coord": {
        "lon": 100.453621,
        "lat": -0.28067
      }
    },
    {
      "id": 1651678,
      "name": "Alahanpanjang",
      "coord": {
        "lon": 100.793541,
        "lat": -1.07491
      }
    },
    {
      "id": 7102366,
      "name": "Seberangpadang",
      "coord": {
        "lon": 100.352303,
        "lat": -0.95212
      }
    },
    {
      "id": 7102381,
      "name": "Parupuk",
      "coord": {
        "lon": 100.344757,
        "lat": -0.87895
      }
    },
    {
      "id": 7102417,
      "name": "Pauhambar",
      "coord": {
        "lon": 100.212791,
        "lat": -0.65536
      }
    },
    {
      "id": 7102427,
      "name": "Lubukalung",
      "coord": {
        "lon": 100.286133,
        "lat": -0.68624
      }
    },
    {
      "id": 7102451,
      "name": "Sungaisarik",
      "coord": {
        "lon": 100.22464,
        "lat": -0.57358
      }
    },
    {
      "id": 7102453,
      "name": "Kampungladang",
      "coord": {
        "lon": 100.170441,
        "lat": -0.54192
      }
    },
    {
      "id": 7102548,
      "name": "Kampungtalang",
      "coord": {
        "lon": 100.183121,
        "lat": -0.46523
      }
    },
    {
      "id": 7102625,
      "name": "Kotatua",
      "coord": {
        "lon": 100.362411,
        "lat": -0.34514
      }
    },
    {
      "id": 7103970,
      "name": "Guguk",
      "coord": {
        "lon": 100.565079,
        "lat": -0.14148
      }
    },
    {
      "id": 7104034,
      "name": "Salimpaung",
      "coord": {
        "lon": 100.548843,
        "lat": -0.3523
      }
    },
    {
      "id": 7104044,
      "name": "Sungayang",
      "coord": {
        "lon": 100.597183,
        "lat": -0.40756
      }
    },
    {
      "id": 7104050,
      "name": "Simabur",
      "coord": {
        "lon": 100.528168,
        "lat": -0.46448
      }
    },
    {
      "id": 7104055,
      "name": "Rambatan",
      "coord": {
        "lon": 100.545441,
        "lat": -0.49214
      }
    },
    {
      "id": 7104136,
      "name": "Gunung Talang",
      "coord": {
        "lon": 100.62709,
        "lat": -0.90566
      }
    },
    {
      "id": 7104187,
      "name": "Kumanis",
      "coord": {
        "lon": 100.804848,
        "lat": -0.5371
      }
    },
    {
      "id": 7104203,
      "name": "Tanjungampalu",
      "coord": {
        "lon": 100.828102,
        "lat": -0.63864
      }
    },
    {
      "id": 7104206,
      "name": "Kototujuh",
      "coord": {
        "lon": 100.917633,
        "lat": -0.64186
      }
    },
    {
      "id": 7104230,
      "name": "Tigakorang",
      "coord": {
        "lon": 100.6427,
        "lat": -0.80359
      }
    },
    {
      "id": 7104261,
      "name": "Sirukam",
      "coord": {
        "lon": 100.759499,
        "lat": -0.88711
      }
    },
    {
      "id": 7104275,
      "name": "Painan",
      "coord": {
        "lon": 100.57383,
        "lat": -1.35172
      }
    },
    {
      "id": 7104357,
      "name": "Tanjung Mas",
      "coord": {
        "lon": 100.754112,
        "lat": -0.49128
      }
    }
  ],
  "Sumatera Utara": [
    {
      "id": 1213493,
      "name": "Teluk Nibung",
      "coord": {
        "lon": 99.816399,
        "lat": 3.001
      }
    },
    {
      "id": 1213500,
      "name": "Tebingtinggi",
      "coord": {
        "lon": 99.162498,
        "lat": 3.3285
      }
    },
    {
      "id": 1213530,
      "name": "Tanjungtiram",
      "coord": {
        "lon": 98.369904,
        "lat": 4.0613
      }
    },
    {
      "id": 1213547,
      "name": "Tanjungbalai",
      "coord": {
        "lon": 99.800003,
        "lat": 2.96667
      }
    },
    {
      "id": 1213614,
      "name": "Sunggal",
      "coord": {
        "lon": 98.615097,
        "lat": 3.5765
      }
    },
    {
      "id": 1213642,
      "name": "North Sumatra",
      "coord": {
        "lon": 99.0,
        "lat": 2.0
      }
    },
    {
      "id": 1213655,
      "name": "Stabat",
      "coord": {
        "lon": 98.451302,
        "lat": 3.761
      }
    },
    {
      "id": 1213664,
      "name": "Sondi",
      "coord": {
        "lon": 98.861702,
        "lat": 2.9735
      }
    },
    {
      "id": 1213855,
      "name": "Sibolga",
      "coord": {
        "lon": 98.779198,
        "lat": 1.7427
      }
    },
    {
      "id": 1213921,
      "name": "Saribudolok",
      "coord": {
        "lon": 98.610703,
        "lat": 2.9392
      }
    },
    {
      "id": 1214073,
      "name": "Rantauprapat",
      "coord": {
        "lon": 99.833328,
        "lat": 2.1
      }
    },
    {
      "id": 1214135,
      "name": "Parapat",
      "coord": {
        "lon": 98.934898,
        "lat": 2.663
      }
    },
    {
      "id": 1214189,
      "name": "Percut",
      "coord": {
        "lon": 98.863998,
        "lat": 3.6253
      }
    },
    {
      "id": 1214191,
      "name": "Perbaungan",
      "coord": {
        "lon": 98.956001,
        "lat": 3.5679
      }
    },
    {
      "id": 1214204,
      "name": "Pematangsiantar",
      "coord": {
        "lon": 99.068703,
        "lat": 2.9595
      }
    },
    {
      "id": 1214294,
      "name": "Pangururan",
      "coord": {
        "lon": 98.696098,
        "lat": 2.6081
      }
    },
    {
      "id": 1214302,
      "name": "Pangkalan Brandan",
      "coord": {
        "lon": 98.278198,
        "lat": 4.0238
      }
    },
    {
      "id": 1214369,
      "name": "Padangsidempuan",
      "coord": {
        "lon": 99.26667,
        "lat": 1.36667
      }
    },
    {
      "id": 1214520,
      "name": "Medan",
      "coord": {
        "lon": 98.666672,
        "lat": 3.58333
      }
    },
    {
      "id": 1214800,
      "name": "Labuhan Deli",
      "coord": {
        "lon": 98.673798,
        "lat": 3.7278
      }
    },
    {
      "id": 1214882,
      "name": "Kisaran",
      "coord": {
        "lon": 99.615799,
        "lat": 2.9845
      }
    },
    {
      "id": 1214965,
      "name": "Kabanjahe",
      "coord": {
        "lon": 98.490799,
        "lat": 3.1001
      }
    },
    {
      "id": 1215199,
      "name": "Deli Tua",
      "coord": {
        "lon": 98.683899,
        "lat": 3.5078
      }
    },
    {
      "id": 1215355,
      "name": "Binjai",
      "coord": {
        "lon": 98.485397,
        "lat": 3.6001
      }
    },
    {
      "id": 1215412,
      "name": "Belawan",
      "coord": {
        "lon": 98.683197,
        "lat": 3.7755
      }
    },
    {
      "id": 1215498,
      "name": "Bandar",
      "coord": {
        "lon": 99.75,
        "lat": 2.05
      }
    },
    {
      "id": 1215580,
      "name": "Ambarita",
      "coord": {
        "lon": 98.8311,
        "lat": 2.6814
      }
    },
    {
      "id": 6705294,
      "name": "Lasara",
      "coord": {
        "lon": 97.701302,
        "lat": 1.1566
      }
    },
    {
      "id": 6716279,
      "name": "Pondok Genteng",
      "coord": {
        "lon": 99.0709,
        "lat": 3.2245
      }
    },
    {
      "id": 6717857,
      "name": "Medan Krio Tiga",
      "coord": {
        "lon": 98.593903,
        "lat": 3.5818
      }
    },
    {
      "id": 6717965,
      "name": "Polonia",
      "coord": {
        "lon": 98.677101,
        "lat": 3.5479
      }
    },
    {
      "id": 7439770,
      "name": "Onan Ganjang Satu",
      "coord": {
        "lon": 98.629601,
        "lat": 2.1581
      }
    },
    {
      "id": 7742769,
      "name": "Harian",
      "coord": {
        "lon": 98.662498,
        "lat": 2.5561
      }
    },
    {
      "id": 7743546,
      "name": "Tigarunggu",
      "coord": {
        "lon": 98.722603,
        "lat": 2.8965
      }
    },
    {
      "id": 7743637,
      "name": "Sipintuangin",
      "coord": {
        "lon": 98.790398,
        "lat": 2.8133
      }
    },
    {
      "id": 7743784,
      "name": "Sarimatondang",
      "coord": {
        "lon": 98.915497,
        "lat": 2.8641
      }
    },
    {
      "id": 7743873,
      "name": "Pane Tongah",
      "coord": {
        "lon": 98.972298,
        "lat": 2.9059
      }
    }
  ],
  "Aceh": [
    {
      "id": 1213523,
      "name": "Tapaktuan",
      "coord": {
        "lon": 97.18,
        "lat": 3.2582
      }
    },
    {
      "id": 1213721,
      "name": "Sinabang",
      "coord": {
        "lon": 96.380096,
        "lat": 2.4803
      }
    },
    {
      "id": 1213821,
      "name": "Sigli",
      "coord": {
        "lon": 95.960899,
        "lat": 5.3848
      }
    },
    {
      "id": 1214026,
      "name": "Sabang",
      "coord": {
        "lon": 95.321388,
        "lat": 5.89333
      }
    },
    {
      "id": 1214055,
      "name": "Reuleuet",
      "coord": {
        "lon": 96.283333,
        "lat": 5.21667
      }
    },
    {
      "id": 1214488,
      "name": "Meulaboh",
      "coord": {
        "lon": 96.128502,
        "lat": 4.1363
      }
    },
    {
      "id": 1214658,
      "name": "Lhokseumawe",
      "coord": {
        "lon": 97.150703,
        "lat": 5.1801
      }
    },
    {
      "id": 1214724,
      "name": "Langsa",
      "coord": {
        "lon": 97.9683,
        "lat": 4.4683
      }
    },
    {
      "id": 1215350,
      "name": "Bireun",
      "coord": {
        "lon": 96.700897,
        "lat": 5.203
      }
    },
    {
      "id": 1215501,
      "name": "Kota Banda Aceh",
      "coord": {
        "lon": 95.343002,
        "lat": 5.542
      }
    },
    {
      "id": 1215502,
      "name": "Banda Aceh",
      "coord": {
        "lon": 95.322197,
        "lat": 5.5577
      }
    },
    {
      "id": 1215638,
      "name": "Nanggroe Aceh Darussalam Province",
      "coord": {
        "lon": 97.0,
        "lat": 4.0
      }
    },
    {
      "id": 6700995,
      "name": "Bungcala",
      "coord": {
        "lon": 95.4151,
        "lat": 5.5248
      }
    },
    {
      "id": 6704108,
      "name": "Pinto Makmur",
      "coord": {
        "lon": 96.947601,
        "lat": 5.2288
      }
    },
    {
      "id": 6705237,
      "name": "Simpangpeueul",
      "coord": {
        "lon": 96.228996,
        "lat": 4.2562
      }
    }
  ],
  "Jawa Timur": [
    {
      "id": 1621160,
      "name": "Yosowilangun",
      "coord": {
        "lon": 113.313599,
        "lat": -8.2391
      }
    },
    {
      "id": 1621313,
      "name": "Wuluhan",
      "coord": {
        "lon": 113.550301,
        "lat": -8.3376
      }
    },
    {
      "id": 1621321,
      "name": "Sumberwudi",
      "coord": {
        "lon": 112.365601,
        "lat": -7.0002
      }
    },
    {
      "id": 1621439,
      "name": "Wongsorejo",
      "coord": {
        "lon": 114.400902,
        "lat": -7.9908
      }
    },
    {
      "id": 1621500,
      "name": "Wlingi",
      "coord": {
        "lon": 112.3311,
        "lat": -8.0776
      }
    },
    {
      "id": 1622272,
      "name": "Wajak",
      "coord": {
        "lon": 112.731201,
        "lat": -8.102
      }
    },
    {
      "id": 1622392,
      "name": "Wagir",
      "coord": {
        "lon": 112.5942,
        "lat": -8.0132
      }
    },
    {
      "id": 1622665,
      "name": "Umbulsari",
      "coord": {
        "lon": 113.444504,
        "lat": -8.2595
      }
    },
    {
      "id": 1622784,
      "name": "Ujungpangkah",
      "coord": {
        "lon": 112.555099,
        "lat": -6.917
      }
    },
    {
      "id": 1622886,
      "name": "Tuwiri Wetan",
      "coord": {
        "lon": 111.976799,
        "lat": -6.8736
      }
    },
    {
      "id": 1622953,
      "name": "Turen",
      "coord": {
        "lon": 112.686096,
        "lat": -8.17295
      }
    },
    {
      "id": 1623011,
      "name": "Tumpang",
      "coord": {
        "lon": 112.763901,
        "lat": -8.0061
      }
    },
    {
      "id": 1623080,
      "name": "Tulungagung",
      "coord": {
        "lon": 111.902496,
        "lat": -8.0657
      }
    },
    {
      "id": 1623096,
      "name": "Tulangan Utara",
      "coord": {
        "lon": 112.650497,
        "lat": -7.4737
      }
    },
    {
      "id": 1623180,
      "name": "Tuban",
      "coord": {
        "lon": 112.064903,
        "lat": -6.8976
      }
    },
    {
      "id": 1623251,
      "name": "Trenggalek",
      "coord": {
        "lon": 111.716667,
        "lat": -8.05
      }
    },
    {
      "id": 1624182,
      "name": "Tempeh Tengah",
      "coord": {
        "lon": 113.175797,
        "lat": -8.2055
      }
    },
    {
      "id": 1624415,
      "name": "Tekung",
      "coord": {
        "lon": 113.279602,
        "lat": -8.1736
      }
    },
    {
      "id": 1624555,
      "name": "Tawun",
      "coord": {
        "lon": 111.737801,
        "lat": -6.9148
      }
    },
    {
      "id": 1625067,
      "name": "Tanggulangin",
      "coord": {
        "lon": 112.699921,
        "lat": -7.49958
      }
    },
    {
      "id": 1625070,
      "name": "Tanggul",
      "coord": {
        "lon": 113.452499,
        "lat": -8.1645
      }
    },
    {
      "id": 1625324,
      "name": "Krajan Tambakrejo",
      "coord": {
        "lon": 112.7145,
        "lat": -8.4028
      }
    },
    {
      "id": 1625386,
      "name": "Talun",
      "coord": {
        "lon": 112.285004,
        "lat": -8.0906
      }
    },
    {
      "id": 1625411,
      "name": "Talok",
      "coord": {
        "lon": 112.701111,
        "lat": -8.18669
      }
    },
    {
      "id": 1625559,
      "name": "Tajinan",
      "coord": {
        "lon": 112.682404,
        "lat": -8.0497
      }
    },
    {
      "id": 1625749,
      "name": "Suwaru",
      "coord": {
        "lon": 112.608597,
        "lat": -8.2122
      }
    },
    {
      "id": 1625784,
      "name": "Suruhwadang",
      "coord": {
        "lon": 112.104897,
        "lat": -8.1985
      }
    },
    {
      "id": 1625822,
      "name": "Surabaya",
      "coord": {
        "lon": 112.750832,
        "lat": -7.24917
      }
    },
    {
      "id": 1626099,
      "name": "Sumenep",
      "coord": {
        "lon": 113.866669,
        "lat": -7.01667
      }
    },
    {
      "id": 1626128,
      "name": "Sumberrojokrajan",
      "coord": {
        "lon": 112.622704,
        "lat": -8.2441
      }
    },
    {
      "id": 1626134,
      "name": "Sumberpucung",
      "coord": {
        "lon": 112.482918,
        "lat": -8.15856
      }
    },
    {
      "id": 1626140,
      "name": "Krajansumbermujur",
      "coord": {
        "lon": 113.021896,
        "lat": -8.1375
      }
    },
    {
      "id": 1626142,
      "name": "Sumbermanjing Wetan",
      "coord": {
        "lon": 112.689598,
        "lat": -8.2807
      }
    },
    {
      "id": 1626143,
      "name": "Sumbermanjing Kulon",
      "coord": {
        "lon": 112.494797,
        "lat": -8.3013
      }
    },
    {
      "id": 1626153,
      "name": "Sumberkalong",
      "coord": {
        "lon": 113.791397,
        "lat": -8.0846
      }
    },
    {
      "id": 1626154,
      "name": "Sumberjati",
      "coord": {
        "lon": 113.879898,
        "lat": -8.1873
      }
    },
    {
      "id": 1626155,
      "name": "Sumberjambe",
      "coord": {
        "lon": 113.9002,
        "lat": -8.0699
      }
    },
    {
      "id": 1626173,
      "name": "Sumberbaru",
      "coord": {
        "lon": 113.388702,
        "lat": -8.1177
      }
    },
    {
      "id": 1626175,
      "name": "Sumberanyar",
      "coord": {
        "lon": 114.299698,
        "lat": -7.7824
      }
    },
    {
      "id": 1626248,
      "name": "Sukowono",
      "coord": {
        "lon": 113.834198,
        "lat": -8.0576
      }
    },
    {
      "id": 1626273,
      "name": "Sukodono",
      "coord": {
        "lon": 113.232201,
        "lat": -8.1046
      }
    },
    {
      "id": 1626418,
      "name": "Sudimoro",
      "coord": {
        "lon": 111.375099,
        "lat": -8.2197
      }
    },
    {
      "id": 1626486,
      "name": "Srono",
      "coord": {
        "lon": 114.266609,
        "lat": -8.40003
      }
    },
    {
      "id": 1626673,
      "name": "Soko",
      "coord": {
        "lon": 112.42704,
        "lat": -7.48315
      }
    },
    {
      "id": 1626748,
      "name": "Selorok",
      "coord": {
        "lon": 112.525902,
        "lat": -8.1438
      }
    },
    {
      "id": 1626759,
      "name": "Slahung",
      "coord": {
        "lon": 111.413902,
        "lat": -8.0349
      }
    },
    {
      "id": 1626801,
      "name": "Situbondo",
      "coord": {
        "lon": 114.009758,
        "lat": -7.70623
      }
    },
    {
      "id": 1626808,
      "name": "Sitiarjo",
      "coord": {
        "lon": 112.681099,
        "lat": -8.3793
      }
    },
    {
      "id": 1626899,
      "name": "Singosari",
      "coord": {
        "lon": 112.665802,
        "lat": -7.8924
      }
    },
    {
      "id": 1626903,
      "name": "Singojuruh",
      "coord": {
        "lon": 114.23333,
        "lat": -8.31667
      }
    },
    {
      "id": 1627107,
      "name": "Silo",
      "coord": {
        "lon": 113.853638,
        "lat": -8.21667
      }
    },
    {
      "id": 1627253,
      "name": "Sidoarjo",
      "coord": {
        "lon": 112.7183,
        "lat": -7.4478
      }
    },
    {
      "id": 1627546,
      "name": "Serang",
      "coord": {
        "lon": 112.240196,
        "lat": -8.3077
      }
    },
    {
      "id": 1627622,
      "name": "Sepanjang",
      "coord": {
        "lon": 114.0513,
        "lat": -8.3014
      }
    },
    {
      "id": 1627651,
      "name": "Sentul",
      "coord": {
        "lon": 112.430344,
        "lat": -6.88154
      }
    },
    {
      "id": 1627672,
      "name": "Senori",
      "coord": {
        "lon": 111.724403,
        "lat": -7.0157
      }
    },
    {
      "id": 1627673,
      "name": "Senori",
      "coord": {
        "lon": 111.9589,
        "lat": -6.8709
      }
    },
    {
      "id": 1627732,
      "name": "Senduro",
      "coord": {
        "lon": 113.089104,
        "lat": -8.0936
      }
    },
    {
      "id": 1627787,
      "name": "Sempu",
      "coord": {
        "lon": 114.152,
        "lat": -8.3184
      }
    },
    {
      "id": 1627794,
      "name": "Sempol",
      "coord": {
        "lon": 114.148903,
        "lat": -8.0075
      }
    },
    {
      "id": 1627826,
      "name": "Semiring",
      "coord": {
        "lon": 114.022202,
        "lat": -7.63
      }
    },
    {
      "id": 1627858,
      "name": "Semboro Lor",
      "coord": {
        "lon": 113.444504,
        "lat": -8.1901
      }
    },
    {
      "id": 1627953,
      "name": "Selorejo",
      "coord": {
        "lon": 112.425697,
        "lat": -8.1392
      }
    },
    {
      "id": 1627956,
      "name": "Selopuro",
      "coord": {
        "lon": 112.308601,
        "lat": -8.1449
      }
    },
    {
      "id": 1627965,
      "name": "Selokambang",
      "coord": {
        "lon": 113.166199,
        "lat": -8.1428
      }
    },
    {
      "id": 1628152,
      "name": "Sekapuk",
      "coord": {
        "lon": 112.505501,
        "lat": -6.9542
      }
    },
    {
      "id": 1628264,
      "name": "Sidayu",
      "coord": {
        "lon": 112.563599,
        "lat": -6.9993
      }
    },
    {
      "id": 1628269,
      "name": "Sedati",
      "coord": {
        "lon": 112.767502,
        "lat": -7.3952
      }
    },
    {
      "id": 1628567,
      "name": "Sarongan",
      "coord": {
        "lon": 113.960403,
        "lat": -8.5416
      }
    },
    {
      "id": 1628899,
      "name": "Sampang",
      "coord": {
        "lon": 113.239403,
        "lat": -7.1872
      }
    },
    {
      "id": 1629298,
      "name": "Sadang",
      "coord": {
        "lon": 111.662498,
        "lat": -6.8764
      }
    },
    {
      "id": 1629390,
      "name": "Ruser",
      "coord": {
        "lon": 112.023201,
        "lat": -8.2042
      }
    },
    {
      "id": 1629742,
      "name": "Rembes",
      "coord": {
        "lon": 112.135803,
        "lat": -6.9035
      }
    },
    {
      "id": 1630090,
      "name": "Randuagung",
      "coord": {
        "lon": 113.3032,
        "lat": -8.072
      }
    },
    {
      "id": 1630166,
      "name": "Rambipuji",
      "coord": {
        "lon": 113.6092,
        "lat": -8.209
      }
    },
    {
      "id": 1630171,
      "name": "Ramban Wetan",
      "coord": {
        "lon": 114.026199,
        "lat": -7.7783
      }
    },
    {
      "id": 1630327,
      "name": "Purworejo",
      "coord": {
        "lon": 111.922401,
        "lat": -6.7872
      }
    },
    {
      "id": 1630329,
      "name": "Purwoharjo",
      "coord": {
        "lon": 114.222,
        "lat": -8.501
      }
    },
    {
      "id": 1630567,
      "name": "Pujiharjo",
      "coord": {
        "lon": 112.882797,
        "lat": -8.3676
      }
    },
    {
      "id": 1630579,
      "name": "Puger",
      "coord": {
        "lon": 113.475197,
        "lat": -8.3702
      }
    },
    {
      "id": 1630634,
      "name": "Probolinggo",
      "coord": {
        "lon": 113.215897,
        "lat": -7.7543
      }
    },
    {
      "id": 1630649,
      "name": "Prigen",
      "coord": {
        "lon": 112.616669,
        "lat": -7.68333
      }
    },
    {
      "id": 1630798,
      "name": "Ponorogo",
      "coord": {
        "lon": 111.461998,
        "lat": -7.8685
      }
    },
    {
      "id": 1630861,
      "name": "Pondokdalem",
      "coord": {
        "lon": 113.429802,
        "lat": -8.147
      }
    },
    {
      "id": 1630896,
      "name": "Poncokusumo",
      "coord": {
        "lon": 112.809898,
        "lat": -8.0522
      }
    },
    {
      "id": 1630959,
      "name": "Pohgajih",
      "coord": {
        "lon": 112.420097,
        "lat": -8.1546
      }
    },
    {
      "id": 1631240,
      "name": "Petung",
      "coord": {
        "lon": 113.582199,
        "lat": -8.2068
      }
    },
    {
      "id": 1631586,
      "name": "Penanggal",
      "coord": {
        "lon": 113.042801,
        "lat": -8.1423
      }
    },
    {
      "id": 1631998,
      "name": "Patemon",
      "coord": {
        "lon": 113.453598,
        "lat": -8.1517
      }
    },
    {
      "id": 1632007,
      "name": "Petaunan",
      "coord": {
        "lon": 113.976501,
        "lat": -8.0037
      }
    },
    {
      "id": 1632033,
      "name": "Pasuruan",
      "coord": {
        "lon": 112.907501,
        "lat": -7.6453
      }
    },
    {
      "id": 1632128,
      "name": "Pasirian",
      "coord": {
        "lon": 113.114601,
        "lat": -8.2137
      }
    },
    {
      "id": 1632257,
      "name": "Pesanggaran",
      "coord": {
        "lon": 114.099701,
        "lat": -8.5703
      }
    },
    {
      "id": 1632358,
      "name": "Pare",
      "coord": {
        "lon": 112.197998,
        "lat": -7.7679
      }
    },
    {
      "id": 1632531,
      "name": "Panti",
      "coord": {
        "lon": 113.6259,
        "lat": -8.1677
      }
    },
    {
      "id": 1632566,
      "name": "Panji",
      "coord": {
        "lon": 114.099541,
        "lat": -7.72528
      }
    },
    {
      "id": 1632568,
      "name": "Panjerrejo",
      "coord": {
        "lon": 112.0177,
        "lat": -8.1382
      }
    },
    {
      "id": 1632728,
      "name": "Krajan Pangkah Kulon",
      "coord": {
        "lon": 112.5541,
        "lat": -6.9158
      }
    },
    {
      "id": 1632740,
      "name": "Panggungrejo",
      "coord": {
        "lon": 112.278702,
        "lat": -8.2512
      }
    },
    {
      "id": 1632748,
      "name": "Panggul",
      "coord": {
        "lon": 111.455399,
        "lat": -8.2492
      }
    },
    {
      "id": 1632859,
      "name": "Pandaan",
      "coord": {
        "lon": 112.6875,
        "lat": -7.65268
      }
    },
    {
      "id": 1632903,
      "name": "Panarukan",
      "coord": {
        "lon": 113.918442,
        "lat": -7.70181
      }
    },
    {
      "id": 1632978,
      "name": "Pamekasan",
      "coord": {
        "lon": 113.474602,
        "lat": -7.1568
      }
    },
    {
      "id": 1633071,
      "name": "Pelem Satu",
      "coord": {
        "lon": 111.458298,
        "lat": -8.0437
      }
    },
    {
      "id": 1633122,
      "name": "Palang Utara",
      "coord": {
        "lon": 112.139999,
        "lat": -6.9025
      }
    },
    {
      "id": 1633182,
      "name": "Pakisaji",
      "coord": {
        "lon": 112.598099,
        "lat": -8.0665
      }
    },
    {
      "id": 1633293,
      "name": "Pagelaran",
      "coord": {
        "lon": 112.6203,
        "lat": -8.1975
      }
    },
    {
      "id": 1633317,
      "name": "Pagak",
      "coord": {
        "lon": 112.527603,
        "lat": -8.2258
      }
    },
    {
      "id": 1633399,
      "name": "Padangan",
      "coord": {
        "lon": 111.614601,
        "lat": -7.1536
      }
    },
    {
      "id": 1633442,
      "name": "Paciran",
      "coord": {
        "lon": 112.37606,
        "lat": -6.87666
      }
    },
    {
      "id": 1633900,
      "name": "Nogosari",
      "coord": {
        "lon": 113.293602,
        "lat": -8.1882
      }
    },
    {
      "id": 1633986,
      "name": "Ngunut",
      "coord": {
        "lon": 112.015907,
        "lat": -8.1058
      }
    },
    {
      "id": 1634000,
      "name": "Ngrejo",
      "coord": {
        "lon": 112.503601,
        "lat": -8.1014
      }
    },
    {
      "id": 1634001,
      "name": "Ngrayun",
      "coord": {
        "lon": 111.448898,
        "lat": -8.0723
      }
    },
    {
      "id": 1634010,
      "name": "Ngoro",
      "coord": {
        "lon": 112.258041,
        "lat": -7.68386
      }
    },
    {
      "id": 1634054,
      "name": "Nginokrajan",
      "coord": {
        "lon": 112.064697,
        "lat": -6.9936
      }
    },
    {
      "id": 1634092,
      "name": "Ngebruk",
      "coord": {
        "lon": 112.516502,
        "lat": -8.1504
      }
    },
    {
      "id": 1634098,
      "name": "Ngawi",
      "coord": {
        "lon": 111.446098,
        "lat": -7.4038
      }
    },
    {
      "id": 1634126,
      "name": "Ngantru",
      "coord": {
        "lon": 111.9254,
        "lat": -8.0101
      }
    },
    {
      "id": 1634131,
      "name": "Nganjuk",
      "coord": {
        "lon": 111.903503,
        "lat": -7.6051
      }
    },
    {
      "id": 1634718,
      "name": "Muncar",
      "coord": {
        "lon": 114.333328,
        "lat": -8.43333
      }
    },
    {
      "id": 1635019,
      "name": "Montongsekar",
      "coord": {
        "lon": 111.880898,
        "lat": -6.9489
      }
    },
    {
      "id": 1635046,
      "name": "Mondokan",
      "coord": {
        "lon": 112.025299,
        "lat": -6.8852
      }
    },
    {
      "id": 1635111,
      "name": "Mojokerto",
      "coord": {
        "lon": 112.4338,
        "lat": -7.4664
      }
    },
    {
      "id": 1635116,
      "name": "Mojoagung",
      "coord": {
        "lon": 112.349998,
        "lat": -7.56667
      }
    },
    {
      "id": 1635420,
      "name": "Merakurak",
      "coord": {
        "lon": 111.986298,
        "lat": -6.8783
      }
    },
    {
      "id": 1635777,
      "name": "Mayang",
      "coord": {
        "lon": 113.795799,
        "lat": -8.1762
      }
    },
    {
      "id": 1636364,
      "name": "Mangli",
      "coord": {
        "lon": 113.651604,
        "lat": -8.191
      }
    },
    {
      "id": 1636439,
      "name": "Mangaran",
      "coord": {
        "lon": 114.040604,
        "lat": -7.6668
      }
    },
    {
      "id": 1636481,
      "name": "Mander",
      "coord": {
        "lon": 111.802803,
        "lat": -6.8593
      }
    },
    {
      "id": 1636722,
      "name": "Malang",
      "coord": {
        "lon": 112.630402,
        "lat": -7.9797
      }
    },
    {
      "id": 1636873,
      "name": "Maguan",
      "coord": {
        "lon": 112.537003,
        "lat": -8.0712
      }
    },
    {
      "id": 1636906,
      "name": "Maesan",
      "coord": {
        "lon": 113.777901,
        "lat": -8.0233
      }
    },
    {
      "id": 1636912,
      "name": "Maduran",
      "coord": {
        "lon": 112.280701,
        "lat": -7.0042
      }
    },
    {
      "id": 1636930,
      "name": "Madiun",
      "coord": {
        "lon": 111.523903,
        "lat": -7.6298
      }
    },
    {
      "id": 1637090,
      "name": "Lumajang",
      "coord": {
        "lon": 113.2248,
        "lat": -8.1335
      }
    },
    {
      "id": 1637454,
      "name": "Lojejerkrajan",
      "coord": {
        "lon": 113.495598,
        "lat": -8.3653
      }
    },
    {
      "id": 1637479,
      "name": "Lodoyo",
      "coord": {
        "lon": 112.2173,
        "lat": -8.1613
      }
    },
    {
      "id": 1638182,
      "name": "Ledokombo",
      "coord": {
        "lon": 113.875198,
        "lat": -8.1346
      }
    },
    {
      "id": 1638284,
      "name": "Lawang",
      "coord": {
        "lon": 112.694702,
        "lat": -7.8353
      }
    },
    {
      "id": 1638377,
      "name": "Laren",
      "coord": {
        "lon": 112.2957,
        "lat": -6.9776
      }
    },
    {
      "id": 1638562,
      "name": "Lamongan",
      "coord": {
        "lon": 112.416672,
        "lat": -7.11667
      }
    },
    {
      "id": 1639356,
      "name": "Krian",
      "coord": {
        "lon": 112.579201,
        "lat": -7.4104
      }
    },
    {
      "id": 1639431,
      "name": "Kraksaan",
      "coord": {
        "lon": 113.39624,
        "lat": -7.75845
      }
    },
    {
      "id": 1639881,
      "name": "Klepu Krajan",
      "coord": {
        "lon": 112.733002,
        "lat": -8.2627
      }
    },
    {
      "id": 1640057,
      "name": "Kidal",
      "coord": {
        "lon": 112.708504,
        "lat": -8.0224
      }
    },
    {
      "id": 1640101,
      "name": "Ketowan",
      "coord": {
        "lon": 114.131401,
        "lat": -7.7829
      }
    },
    {
      "id": 1640169,
      "name": "Kesamben",
      "coord": {
        "lon": 112.365799,
        "lat": -8.1462
      }
    },
    {
      "id": 1640185,
      "name": "Kertosono",
      "coord": {
        "lon": 112.099998,
        "lat": -7.58333
      }
    },
    {
      "id": 1640187,
      "name": "Kertosari",
      "coord": {
        "lon": 114.2024,
        "lat": -7.7543
      }
    },
    {
      "id": 1640239,
      "name": "Kerek",
      "coord": {
        "lon": 111.886597,
        "lat": -6.8951
      }
    },
    {
      "id": 1640296,
      "name": "Kepanjen",
      "coord": {
        "lon": 112.572701,
        "lat": -8.1303
      }
    },
    {
      "id": 1640354,
      "name": "Kencong",
      "coord": {
        "lon": 113.366669,
        "lat": -8.28333
      }
    },
    {
      "id": 1640392,
      "name": "Kemiri",
      "coord": {
        "lon": 111.911301,
        "lat": -8.2267
      }
    },
    {
      "id": 1640435,
      "name": "Kembang",
      "coord": {
        "lon": 113.963402,
        "lat": -8.0105
      }
    },
    {
      "id": 1640585,
      "name": "Kedungwaru",
      "coord": {
        "lon": 111.916672,
        "lat": -8.06667
      }
    },
    {
      "id": 1640600,
      "name": "Kedungpeluk",
      "coord": {
        "lon": 112.754601,
        "lat": -7.4824
      }
    },
    {
      "id": 1640603,
      "name": "Kedunglo",
      "coord": {
        "lon": 114.220299,
        "lat": -7.7863
      }
    },
    {
      "id": 1640660,
      "name": "Kediri",
      "coord": {
        "lon": 112.01667,
        "lat": -7.81667
      }
    },
    {
      "id": 1640668,
      "name": "Kedewan",
      "coord": {
        "lon": 111.638496,
        "lat": -7.036
      }
    },
    {
      "id": 1640765,
      "name": "Kebomas",
      "coord": {
        "lon": 112.633301,
        "lat": -7.16667
      }
    },
    {
      "id": 1641019,
      "name": "Kasiyan",
      "coord": {
        "lon": 113.469002,
        "lat": -8.3146
      }
    },
    {
      "id": 1641177,
      "name": "Karangsono",
      "coord": {
        "lon": 113.520401,
        "lat": -8.227
      }
    },
    {
      "id": 1641192,
      "name": "Karangrejo",
      "coord": {
        "lon": 111.909203,
        "lat": -8.003
      }
    },
    {
      "id": 1641257,
      "name": "Karanggeneng",
      "coord": {
        "lon": 112.373802,
        "lat": -6.9897
      }
    },
    {
      "id": 1641273,
      "name": "Karangdowo",
      "coord": {
        "lon": 111.895103,
        "lat": -6.7912
      }
    },
    {
      "id": 1641306,
      "name": "Karangarjo",
      "coord": {
        "lon": 114.048302,
        "lat": -8.3125
      }
    },
    {
      "id": 1641407,
      "name": "Kapongan",
      "coord": {
        "lon": 114.061897,
        "lat": -7.6907
      }
    },
    {
      "id": 1641497,
      "name": "Kanigoro",
      "coord": {
        "lon": 112.218964,
        "lat": -8.13003
      }
    },
    {
      "id": 1641792,
      "name": "Kamal",
      "coord": {
        "lon": 112.71917,
        "lat": -7.16778
      }
    },
    {
      "id": 1641857,
      "name": "Kalitengah",
      "coord": {
        "lon": 112.400398,
        "lat": -6.9954
      }
    },
    {
      "id": 1641858,
      "name": "Kalitelo",
      "coord": {
        "lon": 112.434097,
        "lat": -8.2572
      }
    },
    {
      "id": 1641877,
      "name": "Kalipuro",
      "coord": {
        "lon": 114.3591,
        "lat": -8.1687
      }
    },
    {
      "id": 1641881,
      "name": "Kalipare",
      "coord": {
        "lon": 112.466301,
        "lat": -8.2066
      }
    },
    {
      "id": 1641917,
      "name": "Kalijeruk",
      "coord": {
        "lon": 113.338997,
        "lat": -8.0653
      }
    },
    {
      "id": 1641939,
      "name": "Kalidawir",
      "coord": {
        "lon": 111.972298,
        "lat": -8.1808
      }
    },
    {
      "id": 1641958,
      "name": "Kalibaru",
      "coord": {
        "lon": 113.985901,
        "lat": -8.2897
      }
    },
    {
      "id": 1641977,
      "name": "Kalianget",
      "coord": {
        "lon": 113.933327,
        "lat": -7.05
      }
    },
    {
      "id": 1642224,
      "name": "Kademangan",
      "coord": {
        "lon": 112.144287,
        "lat": -8.14674
      }
    },
    {
      "id": 1642414,
      "name": "Jombang",
      "coord": {
        "lon": 112.23307,
        "lat": -7.54595
      }
    },
    {
      "id": 1642420,
      "name": "Jojogan",
      "coord": {
        "lon": 111.788101,
        "lat": -6.9709
      }
    },
    {
      "id": 1642566,
      "name": "Jenggawah",
      "coord": {
        "lon": 113.647903,
        "lat": -8.2661
      }
    },
    {
      "id": 1642588,
      "name": "Jember",
      "coord": {
        "lon": 113.703171,
        "lat": -8.16604
      }
    },
    {
      "id": 1642617,
      "name": "Jelbuk",
      "coord": {
        "lon": 113.759201,
        "lat": -8.0839
      }
    },
    {
      "id": 1642668,
      "name": "Jawa Timur",
      "coord": {
        "lon": 112.509903,
        "lat": -7.7394
      }
    },
    {
      "id": 1642691,
      "name": "Jatiroto",
      "coord": {
        "lon": 113.363701,
        "lat": -8.1218
      }
    },
    {
      "id": 1642693,
      "name": "Jatirogo",
      "coord": {
        "lon": 111.659203,
        "lat": -6.8858
      }
    },
    {
      "id": 1642694,
      "name": "Jatirejo",
      "coord": {
        "lon": 112.418503,
        "lat": -7.5799
      }
    },
    {
      "id": 1642760,
      "name": "Jarurejo",
      "coord": {
        "lon": 111.885201,
        "lat": -6.9
      }
    },
    {
      "id": 1642765,
      "name": "Jarangan",
      "coord": {
        "lon": 112.446297,
        "lat": -8.1078
      }
    },
    {
      "id": 1643684,
      "name": "Gumuk Tengah",
      "coord": {
        "lon": 114.0047,
        "lat": -7.6392
      }
    },
    {
      "id": 1643730,
      "name": "Gubugklakah Barat",
      "coord": {
        "lon": 112.833603,
        "lat": -8.0232
      }
    },
    {
      "id": 1643776,
      "name": "Gresik",
      "coord": {
        "lon": 112.656113,
        "lat": -7.15389
      }
    },
    {
      "id": 1643896,
      "name": "Gondanglegi Wetan",
      "coord": {
        "lon": 112.640762,
        "lat": -8.17966
      }
    },
    {
      "id": 1643898,
      "name": "Gongdanglegi Kulon",
      "coord": {
        "lon": 112.635941,
        "lat": -8.17529
      }
    },
    {
      "id": 1643930,
      "name": "Golokan",
      "coord": {
        "lon": 112.5392,
        "lat": -6.9784
      }
    },
    {
      "id": 1644003,
      "name": "Glondong",
      "coord": {
        "lon": 111.891602,
        "lat": -6.7924
      }
    },
    {
      "id": 1644178,
      "name": "Genteng",
      "coord": {
        "lon": 114.150002,
        "lat": -8.36667
      }
    },
    {
      "id": 1644321,
      "name": "Gedog Wetan",
      "coord": {
        "lon": 112.695229,
        "lat": -8.19965
      }
    },
    {
      "id": 1644349,
      "name": "Gedangan",
      "coord": {
        "lon": 112.726669,
        "lat": -7.39083
      }
    },
    {
      "id": 1644451,
      "name": "Garahan",
      "coord": {
        "lon": 113.892403,
        "lat": -8.2117
      }
    },
    {
      "id": 1644488,
      "name": "Gandusari",
      "coord": {
        "lon": 112.303001,
        "lat": -8.0457
      }
    },
    {
      "id": 1644522,
      "name": "Gampengrejo",
      "coord": {
        "lon": 112.01667,
        "lat": -7.76667
      }
    },
    {
      "id": 1644523,
      "name": "Gampang",
      "coord": {
        "lon": 112.298599,
        "lat": -6.956
      }
    },
    {
      "id": 1644556,
      "name": "Gambirono",
      "coord": {
        "lon": 113.518898,
        "lat": -8.199
      }
    },
    {
      "id": 1644557,
      "name": "Gambiran Satu",
      "coord": {
        "lon": 114.1464,
        "lat": -8.3939
      }
    },
    {
      "id": 1644689,
      "name": "Gadang",
      "coord": {
        "lon": 112.628304,
        "lat": -8.0123
      }
    },
    {
      "id": 1645220,
      "name": "Driyorejo",
      "coord": {
        "lon": 112.621902,
        "lat": -7.3659
      }
    },
    {
      "id": 1645228,
      "name": "Drajat",
      "coord": {
        "lon": 112.388,
        "lat": -6.8828
      }
    },
    {
      "id": 1645303,
      "name": "Donomulyo",
      "coord": {
        "lon": 112.427002,
        "lat": -8.2867
      }
    },
    {
      "id": 1645352,
      "name": "Domasan",
      "coord": {
        "lon": 111.975998,
        "lat": -8.1447
      }
    },
    {
      "id": 1645376,
      "name": "Doko",
      "coord": {
        "lon": 112.372902,
        "lat": -8.0816
      }
    },
    {
      "id": 1645428,
      "name": "Diwek",
      "coord": {
        "lon": 112.231087,
        "lat": -7.57897
      }
    },
    {
      "id": 1645571,
      "name": "Deket Wetan",
      "coord": {
        "lon": 112.443901,
        "lat": -7.1184
      }
    },
    {
      "id": 1645707,
      "name": "Danurejo",
      "coord": {
        "lon": 113.072098,
        "lat": -8.2415
      }
    },
    {
      "id": 1645749,
      "name": "Dampit",
      "coord": {
        "lon": 112.749336,
        "lat": -8.21162
      }
    },
    {
      "id": 1645847,
      "name": "Dadapan",
      "coord": {
        "lon": 114.194603,
        "lat": -8.3222
      }
    },
    {
      "id": 1645901,
      "name": "Curahtakir",
      "coord": {
        "lon": 113.752197,
        "lat": -8.3586
      }
    },
    {
      "id": 1645903,
      "name": "Curahnongko",
      "coord": {
        "lon": 113.734596,
        "lat": -8.4007
      }
    },
    {
      "id": 1645915,
      "name": "Cungkal",
      "coord": {
        "lon": 112.486603,
        "lat": -8.2074
      }
    },
    {
      "id": 1645917,
      "name": "Cumedak",
      "coord": {
        "lon": 113.892799,
        "lat": -8.1004
      }
    },
    {
      "id": 1647169,
      "name": "Cermee",
      "coord": {
        "lon": 114.048698,
        "lat": -7.7772
      }
    },
    {
      "id": 1647370,
      "name": "Candipuro",
      "coord": {
        "lon": 113.076302,
        "lat": -8.1884
      }
    },
    {
      "id": 1647640,
      "name": "Bungkal",
      "coord": {
        "lon": 111.454102,
        "lat": -8.0079
      }
    },
    {
      "id": 1647743,
      "name": "Bulu",
      "coord": {
        "lon": 111.719002,
        "lat": -6.7706
      }
    },
    {
      "id": 1647936,
      "name": "Buduran",
      "coord": {
        "lon": 112.723396,
        "lat": -7.4281
      }
    },
    {
      "id": 1648045,
      "name": "Brondong",
      "coord": {
        "lon": 112.291496,
        "lat": -6.877
      }
    },
    {
      "id": 1648066,
      "name": "Berbek",
      "coord": {
        "lon": 112.763611,
        "lat": -7.34639
      }
    },
    {
      "id": 1648082,
      "name": "Boyolangu",
      "coord": {
        "lon": 111.893501,
        "lat": -8.1181
      }
    },
    {
      "id": 1648266,
      "name": "Bondowoso",
      "coord": {
        "lon": 113.821449,
        "lat": -7.91346
      }
    },
    {
      "id": 1648451,
      "name": "Bojonegoro",
      "coord": {
        "lon": 111.881699,
        "lat": -7.1502
      }
    },
    {
      "id": 1648580,
      "name": "Blitar",
      "coord": {
        "lon": 112.168098,
        "lat": -8.0983
      }
    },
    {
      "id": 1648744,
      "name": "Binangun",
      "coord": {
        "lon": 112.335999,
        "lat": -8.2343
      }
    },
    {
      "id": 1648918,
      "name": "Besuki",
      "coord": {
        "lon": 113.697853,
        "lat": -7.73379
      }
    },
    {
      "id": 1649824,
      "name": "Batu",
      "coord": {
        "lon": 112.528328,
        "lat": -7.87
      }
    },
    {
      "id": 1650028,
      "name": "Baratan",
      "coord": {
        "lon": 113.7304,
        "lat": -8.1348
      }
    },
    {
      "id": 1650077,
      "name": "Banyuwangi",
      "coord": {
        "lon": 114.357552,
        "lat": -8.2325
      }
    },
    {
      "id": 1650114,
      "name": "Bantur",
      "coord": {
        "lon": 112.580704,
        "lat": -8.314
      }
    },
    {
      "id": 1650187,
      "name": "Bantal",
      "coord": {
        "lon": 114.230797,
        "lat": -7.7907
      }
    },
    {
      "id": 1650298,
      "name": "Bangkalan",
      "coord": {
        "lon": 112.7351,
        "lat": -7.0455
      }
    },
    {
      "id": 1650318,
      "name": "Bangilan",
      "coord": {
        "lon": 111.714104,
        "lat": -6.97
      }
    },
    {
      "id": 1650319,
      "name": "Bangil",
      "coord": {
        "lon": 112.818604,
        "lat": -7.59939
      }
    },
    {
      "id": 1650332,
      "name": "Bangelan",
      "coord": {
        "lon": 112.4981,
        "lat": -8.1019
      }
    },
    {
      "id": 1650401,
      "name": "Bancar",
      "coord": {
        "lon": 111.7808,
        "lat": -6.7827
      }
    },
    {
      "id": 1650458,
      "name": "Balung",
      "coord": {
        "lon": 113.538803,
        "lat": -8.2727
      }
    },
    {
      "id": 1650460,
      "name": "Balung",
      "coord": {
        "lon": 113.916672,
        "lat": -7.73333
      }
    },
    {
      "id": 1650554,
      "name": "Balearjo",
      "coord": {
        "lon": 112.574799,
        "lat": -8.1956
      }
    },
    {
      "id": 1650627,
      "name": "Bagorejo",
      "coord": {
        "lon": 114.304497,
        "lat": -8.396
      }
    },
    {
      "id": 1650693,
      "name": "Bakalan",
      "coord": {
        "lon": 112.659599,
        "lat": -8.1096
      }
    },
    {
      "id": 1650888,
      "name": "Babat",
      "coord": {
        "lon": 112.163544,
        "lat": -7.11282
      }
    },
    {
      "id": 1651133,
      "name": "Asembagus",
      "coord": {
        "lon": 114.210098,
        "lat": -7.7507
      }
    },
    {
      "id": 1651645,
      "name": "Alasbuluh",
      "coord": {
        "lon": 114.406799,
        "lat": -8.0097
      }
    },
    {
      "id": 1903204,
      "name": "Segorotambak",
      "coord": {
        "lon": 112.807503,
        "lat": -7.36667
      }
    },
    {
      "id": 1903205,
      "name": "Tambakoso",
      "coord": {
        "lon": 112.803902,
        "lat": -7.346
      }
    },
    {
      "id": 1903206,
      "name": "Medokanayu",
      "coord": {
        "lon": 112.798798,
        "lat": -7.3256
      }
    },
    {
      "id": 1903208,
      "name": "Wonorejo",
      "coord": {
        "lon": 112.796806,
        "lat": -7.31138
      }
    },
    {
      "id": 1903273,
      "name": "Ngembo",
      "coord": {
        "lon": 112.502197,
        "lat": -6.9087
      }
    },
    {
      "id": 1906305,
      "name": "Ploso",
      "coord": {
        "lon": 112.763329,
        "lat": -7.25222
      }
    },
    {
      "id": 1906549,
      "name": "Gununganyar",
      "coord": {
        "lon": 112.782097,
        "lat": -7.3409
      }
    },
    {
      "id": 1906551,
      "name": "Panjangjiwo",
      "coord": {
        "lon": 112.764099,
        "lat": -7.3129
      }
    },
    {
      "id": 1906553,
      "name": "Semampir",
      "coord": {
        "lon": 112.780197,
        "lat": -7.3082
      }
    },
    {
      "id": 1906562,
      "name": "Wadungasri",
      "coord": {
        "lon": 112.768303,
        "lat": -7.3451
      }
    },
    {
      "id": 1906564,
      "name": "Wedoro",
      "coord": {
        "lon": 112.751389,
        "lat": -7.35111
      }
    },
    {
      "id": 1906569,
      "name": "Dares",
      "coord": {
        "lon": 112.762398,
        "lat": -7.369
      }
    },
    {
      "id": 1906570,
      "name": "Semampirbarat",
      "coord": {
        "lon": 112.772781,
        "lat": -7.37222
      }
    },
    {
      "id": 1906573,
      "name": "Banjarkemuning",
      "coord": {
        "lon": 112.808502,
        "lat": -7.3867
      }
    },
    {
      "id": 1906578,
      "name": "Tambaksumur",
      "coord": {
        "lon": 112.772903,
        "lat": -7.3485
      }
    },
    {
      "id": 1906583,
      "name": "Buncitan",
      "coord": {
        "lon": 112.781303,
        "lat": -7.3961
      }
    },
    {
      "id": 1906589,
      "name": "Dukuhgisikcemandi",
      "coord": {
        "lon": 112.806602,
        "lat": -7.3899
      }
    },
    {
      "id": 1958025,
      "name": "Glugur Krajan",
      "coord": {
        "lon": 114.046097,
        "lat": -7.6476
      }
    },
    {
      "id": 1958029,
      "name": "Krajan Gebangan",
      "coord": {
        "lon": 114.0644,
        "lat": -7.6752
      }
    },
    {
      "id": 1958030,
      "name": "Krajan Panji Kidul",
      "coord": {
        "lon": 114.041603,
        "lat": -7.7094
      }
    },
    {
      "id": 1958033,
      "name": "Bercak",
      "coord": {
        "lon": 114.061501,
        "lat": -7.7761
      }
    },
    {
      "id": 1958037,
      "name": "Kedungdowo",
      "coord": {
        "lon": 114.1492,
        "lat": -7.7515
      }
    },
    {
      "id": 1958040,
      "name": "Selasaan",
      "coord": {
        "lon": 114.0998,
        "lat": -7.7031
      }
    },
    {
      "id": 1958051,
      "name": "Pariyaan",
      "coord": {
        "lon": 114.174896,
        "lat": -7.7733
      }
    },
    {
      "id": 1958052,
      "name": "Mojosari",
      "coord": {
        "lon": 114.194603,
        "lat": -7.7631
      }
    },
    {
      "id": 1958055,
      "name": "Awar-awar",
      "coord": {
        "lon": 114.2248,
        "lat": -7.7602
      }
    },
    {
      "id": 1965193,
      "name": "Pepe",
      "coord": {
        "lon": 112.769203,
        "lat": -7.4024
      }
    },
    {
      "id": 1965198,
      "name": "Sawohan",
      "coord": {
        "lon": 112.770103,
        "lat": -7.4272
      }
    },
    {
      "id": 1965199,
      "name": "Damarsi",
      "coord": {
        "lon": 112.759804,
        "lat": -7.4177
      }
    },
    {
      "id": 1965202,
      "name": "Dukuh Tengah",
      "coord": {
        "lon": 112.753799,
        "lat": -7.416
      }
    },
    {
      "id": 1965316,
      "name": "Pandansari",
      "coord": {
        "lon": 112.561699,
        "lat": -8.0074
      }
    },
    {
      "id": 1965330,
      "name": "Balesari",
      "coord": {
        "lon": 112.523399,
        "lat": -8.0329
      }
    },
    {
      "id": 1965337,
      "name": "Wadung",
      "coord": {
        "lon": 112.5923,
        "lat": -8.0454
      }
    },
    {
      "id": 1965338,
      "name": "Tambaksari",
      "coord": {
        "lon": 112.589897,
        "lat": -8.0545
      }
    },
    {
      "id": 1965349,
      "name": "Gading",
      "coord": {
        "lon": 112.635201,
        "lat": -8.1025
      }
    },
    {
      "id": 1965350,
      "name": "Glanggang",
      "coord": {
        "lon": 112.599098,
        "lat": -8.082
      }
    },
    {
      "id": 1965351,
      "name": "Wonokerso",
      "coord": {
        "lon": 112.611298,
        "lat": -8.0765
      }
    },
    {
      "id": 1965354,
      "name": "Golek",
      "coord": {
        "lon": 112.612198,
        "lat": -8.0639
      }
    },
    {
      "id": 1965366,
      "name": "Kebonsari",
      "coord": {
        "lon": 112.619102,
        "lat": -8.0176
      }
    },
    {
      "id": 1965387,
      "name": "Gedangan",
      "coord": {
        "lon": 112.5849,
        "lat": -8.0112
      }
    },
    {
      "id": 1965398,
      "name": "Permanu",
      "coord": {
        "lon": 112.578499,
        "lat": -8.0637
      }
    },
    {
      "id": 1965400,
      "name": "Kranggan",
      "coord": {
        "lon": 112.569199,
        "lat": -8.0803
      }
    },
    {
      "id": 1965405,
      "name": "Mboto",
      "coord": {
        "lon": 112.568703,
        "lat": -8.0908
      }
    },
    {
      "id": 1965408,
      "name": "Ngasem",
      "coord": {
        "lon": 112.5588,
        "lat": -8.0955
      }
    },
    {
      "id": 1965409,
      "name": "Kesamben",
      "coord": {
        "lon": 112.566902,
        "lat": -8.0637
      }
    },
    {
      "id": 1965418,
      "name": "Tumpangrejo",
      "coord": {
        "lon": 112.515099,
        "lat": -8.0665
      }
    },
    {
      "id": 1965433,
      "name": "Kasembon",
      "coord": {
        "lon": 112.670403,
        "lat": -8.0878
      }
    },
    {
      "id": 1965437,
      "name": "Krebet",
      "coord": {
        "lon": 112.637703,
        "lat": -8.0944
      }
    },
    {
      "id": 1965443,
      "name": "Tangkilsari",
      "coord": {
        "lon": 112.652901,
        "lat": -8.0601
      }
    },
    {
      "id": 1965445,
      "name": "Tutut",
      "coord": {
        "lon": 112.642899,
        "lat": -8.039
      }
    },
    {
      "id": 1965450,
      "name": "Kalisari",
      "coord": {
        "lon": 112.6483,
        "lat": -8.0234
      }
    },
    {
      "id": 1965454,
      "name": "Sumbersuko",
      "coord": {
        "lon": 112.667503,
        "lat": -8.0438
      }
    },
    {
      "id": 1965462,
      "name": "Plaosan",
      "coord": {
        "lon": 112.517601,
        "lat": -8.0916
      }
    },
    {
      "id": 1965471,
      "name": "Palaan",
      "coord": {
        "lon": 112.547798,
        "lat": -8.1049
      }
    },
    {
      "id": 1965482,
      "name": "Blobo",
      "coord": {
        "lon": 112.597,
        "lat": -8.1153
      }
    },
    {
      "id": 1965483,
      "name": "Boro Utara",
      "coord": {
        "lon": 112.608597,
        "lat": -8.1019
      }
    },
    {
      "id": 1965490,
      "name": "Plandi",
      "coord": {
        "lon": 112.514397,
        "lat": -8.1101
      }
    },
    {
      "id": 1965533,
      "name": "Tamiajeng",
      "coord": {
        "lon": 112.719597,
        "lat": -8.0074
      }
    },
    {
      "id": 1965534,
      "name": "Kambingan",
      "coord": {
        "lon": 112.710297,
        "lat": -8.012
      }
    },
    {
      "id": 1965536,
      "name": "Bokor",
      "coord": {
        "lon": 112.741501,
        "lat": -8.0047
      }
    },
    {
      "id": 1965540,
      "name": "Glagahdowo",
      "coord": {
        "lon": 112.735497,
        "lat": -8.018
      }
    },
    {
      "id": 1965547,
      "name": "Ngingit",
      "coord": {
        "lon": 112.716698,
        "lat": -8.0293
      }
    },
    {
      "id": 1965557,
      "name": "Keden",
      "coord": {
        "lon": 112.741898,
        "lat": -8.0347
      }
    },
    {
      "id": 1965558,
      "name": "Pajaran",
      "coord": {
        "lon": 112.7174,
        "lat": -8.0351
      }
    },
    {
      "id": 1965560,
      "name": "Rambaan",
      "coord": {
        "lon": 112.678703,
        "lat": -8.0463
      }
    },
    {
      "id": 1965566,
      "name": "Ngebruk",
      "coord": {
        "lon": 112.736702,
        "lat": -8.0467
      }
    },
    {
      "id": 1965567,
      "name": "Argomulyo",
      "coord": {
        "lon": 112.705399,
        "lat": -8.0498
      }
    },
    {
      "id": 1965588,
      "name": "Kasri",
      "coord": {
        "lon": 112.677399,
        "lat": -8.1091
      }
    },
    {
      "id": 1965592,
      "name": "Pringu",
      "coord": {
        "lon": 112.684303,
        "lat": -8.0951
      }
    },
    {
      "id": 1965594,
      "name": "Kidangbang",
      "coord": {
        "lon": 112.704803,
        "lat": -8.0954
      }
    },
    {
      "id": 1965596,
      "name": "Sukoanyar",
      "coord": {
        "lon": 112.716103,
        "lat": -8.0979
      }
    },
    {
      "id": 1965604,
      "name": "Bureng",
      "coord": {
        "lon": 112.616798,
        "lat": -8.1195
      }
    },
    {
      "id": 1965608,
      "name": "Ngadilangkung",
      "coord": {
        "lon": 112.575699,
        "lat": -8.1058
      }
    },
    {
      "id": 1965609,
      "name": "Ngantru",
      "coord": {
        "lon": 112.567703,
        "lat": -8.1178
      }
    },
    {
      "id": 1965620,
      "name": "Putukrejo",
      "coord": {
        "lon": 112.632629,
        "lat": -8.12612
      }
    },
    {
      "id": 1965623,
      "name": "Talangagung",
      "coord": {
        "lon": 112.554001,
        "lat": -8.1254
      }
    },
    {
      "id": 1965628,
      "name": "Jatikerto",
      "coord": {
        "lon": 112.538101,
        "lat": -8.1369
      }
    },
    {
      "id": 1965631,
      "name": "Penarukan",
      "coord": {
        "lon": 112.579102,
        "lat": -8.1354
      }
    },
    {
      "id": 1965634,
      "name": "Ketawang",
      "coord": {
        "lon": 112.643539,
        "lat": -8.14111
      }
    },
    {
      "id": 1965635,
      "name": "Urek-urek",
      "coord": {
        "lon": 112.664093,
        "lat": -8.14151
      }
    },
    {
      "id": 1965637,
      "name": "Ganjaran",
      "coord": {
        "lon": 112.614799,
        "lat": -8.1413
      }
    },
    {
      "id": 1965642,
      "name": "Senggreng",
      "coord": {
        "lon": 112.515999,
        "lat": -8.1623
      }
    },
    {
      "id": 1965648,
      "name": "Panggungrejo",
      "coord": {
        "lon": 112.560997,
        "lat": -8.1464
      }
    },
    {
      "id": 1965651,
      "name": "Mangunrejo",
      "coord": {
        "lon": 112.556198,
        "lat": -8.1552
      }
    },
    {
      "id": 1965653,
      "name": "Tegalsari",
      "coord": {
        "lon": 112.576393,
        "lat": -8.16472
      }
    },
    {
      "id": 1965657,
      "name": "Panggungrejo",
      "coord": {
        "lon": 112.600899,
        "lat": -8.1455
      }
    },
    {
      "id": 1965659,
      "name": "Karangsuko",
      "coord": {
        "lon": 112.599197,
        "lat": -8.1666
      }
    },
    {
      "id": 1965670,
      "name": "Pagedangan",
      "coord": {
        "lon": 112.715302,
        "lat": -8.15927
      }
    },
    {
      "id": 1965671,
      "name": "Jambangan",
      "coord": {
        "lon": 112.738213,
        "lat": -8.16225
      }
    },
    {
      "id": 1965673,
      "name": "Jeru",
      "coord": {
        "lon": 112.675499,
        "lat": -8.16151
      }
    },
    {
      "id": 1965677,
      "name": "Sanankerto",
      "coord": {
        "lon": 112.745941,
        "lat": -8.15051
      }
    },
    {
      "id": 1965678,
      "name": "Sananrejo",
      "coord": {
        "lon": 112.717583,
        "lat": -8.14898
      }
    },
    {
      "id": 1965679,
      "name": "Tumpukrenteng",
      "coord": {
        "lon": 112.694504,
        "lat": -8.1305
      }
    },
    {
      "id": 1965680,
      "name": "Sudimoro",
      "coord": {
        "lon": 112.673103,
        "lat": -8.1237
      }
    },
    {
      "id": 1965685,
      "name": "Kedok",
      "coord": {
        "lon": 112.694847,
        "lat": -8.14891
      }
    },
    {
      "id": 1965687,
      "name": "Talang Suko",
      "coord": {
        "lon": 112.686829,
        "lat": -8.14075
      }
    },
    {
      "id": 1965697,
      "name": "Codo",
      "coord": {
        "lon": 112.722198,
        "lat": -8.1286
      }
    },
    {
      "id": 1965699,
      "name": "Blayu",
      "coord": {
        "lon": 112.734703,
        "lat": -8.1119
      }
    },
    {
      "id": 1965742,
      "name": "Tanggung",
      "coord": {
        "lon": 112.677483,
        "lat": -8.17111
      }
    },
    {
      "id": 1965744,
      "name": "Putat Kidul",
      "coord": {
        "lon": 112.644531,
        "lat": -8.17433
      }
    },
    {
      "id": 1965823,
      "name": "Sawahan",
      "coord": {
        "lon": 112.667038,
        "lat": -8.21245
      }
    },
    {
      "id": 1965826,
      "name": "Kemulan",
      "coord": {
        "lon": 112.657112,
        "lat": -8.22226
      }
    },
    {
      "id": 1965829,
      "name": "Sepanjang",
      "coord": {
        "lon": 112.66275,
        "lat": -8.17036
      }
    },
    {
      "id": 1965844,
      "name": "Kademangan",
      "coord": {
        "lon": 112.5989,
        "lat": -8.2144
      }
    },
    {
      "id": 1965847,
      "name": "Rejoyoso",
      "coord": {
        "lon": 112.578102,
        "lat": -8.2169
      }
    },
    {
      "id": 1965852,
      "name": "Brongkal",
      "coord": {
        "lon": 112.593803,
        "lat": -8.1806
      }
    },
    {
      "id": 1965857,
      "name": "Kanigorokrajan",
      "coord": {
        "lon": 112.578796,
        "lat": -8.1854
      }
    },
    {
      "id": 1965918,
      "name": "Sedayu",
      "coord": {
        "lon": 112.6875,
        "lat": -8.1795
      }
    },
    {
      "id": 1965919,
      "name": "Pojok",
      "coord": {
        "lon": 112.720718,
        "lat": -8.17735
      }
    },
    {
      "id": 1965924,
      "name": "Undaan",
      "coord": {
        "lon": 112.677818,
        "lat": -8.19557
      }
    },
    {
      "id": 1965928,
      "name": "Rembun",
      "coord": {
        "lon": 112.711861,
        "lat": -8.19368
      }
    },
    {
      "id": 1965930,
      "name": "Pamotan",
      "coord": {
        "lon": 112.734871,
        "lat": -8.1996
      }
    },
    {
      "id": 1965931,
      "name": "Majang Tengah",
      "coord": {
        "lon": 112.720573,
        "lat": -8.19706
      }
    },
    {
      "id": 1965943,
      "name": "Tawangrejeni",
      "coord": {
        "lon": 112.687599,
        "lat": -8.2226
      }
    },
    {
      "id": 1969926,
      "name": "Gopaan",
      "coord": {
        "lon": 112.510597,
        "lat": -7.0014
      }
    },
    {
      "id": 1969934,
      "name": "Sembungan Kidul",
      "coord": {
        "lon": 112.507896,
        "lat": -7.0064
      }
    },
    {
      "id": 1969935,
      "name": "Kalimati",
      "coord": {
        "lon": 112.499702,
        "lat": -7.0086
      }
    },
    {
      "id": 1969936,
      "name": "Raci Kulon",
      "coord": {
        "lon": 112.542503,
        "lat": -7.0005
      }
    },
    {
      "id": 1969949,
      "name": "Randuboto",
      "coord": {
        "lon": 112.5812,
        "lat": -7.0034
      }
    },
    {
      "id": 1985348,
      "name": "Kalanganyartambak",
      "coord": {
        "lon": 112.7938,
        "lat": -7.3995
      }
    },
    {
      "id": 1985355,
      "name": "Sedatigede",
      "coord": {
        "lon": 112.762299,
        "lat": -7.3768
      }
    },
    {
      "id": 1985359,
      "name": "Sedatiagung",
      "coord": {
        "lon": 112.758057,
        "lat": -7.38194
      }
    },
    {
      "id": 1985361,
      "name": "Gadung",
      "coord": {
        "lon": 112.785301,
        "lat": -7.3748
      }
    },
    {
      "id": 1985526,
      "name": "Pacarkeling",
      "coord": {
        "lon": 112.758102,
        "lat": -7.258
      }
    },
    {
      "id": 1985527,
      "name": "Mulyorejo",
      "coord": {
        "lon": 112.78392,
        "lat": -7.26287
      }
    },
    {
      "id": 1985528,
      "name": "Gubengairlangga",
      "coord": {
        "lon": 112.757301,
        "lat": -7.2729
      }
    },
    {
      "id": 1985530,
      "name": "Prapen",
      "coord": {
        "lon": 112.756668,
        "lat": -7.31453
      }
    },
    {
      "id": 1985532,
      "name": "Gununganyartambak Tengah",
      "coord": {
        "lon": 112.801941,
        "lat": -7.33753
      }
    },
    {
      "id": 1985535,
      "name": "Kedungasem",
      "coord": {
        "lon": 112.778702,
        "lat": -7.3216
      }
    },
    {
      "id": 1985537,
      "name": "Jagirsidosermo",
      "coord": {
        "lon": 112.754532,
        "lat": -7.30678
      }
    },
    {
      "id": 1985547,
      "name": "Labansari",
      "coord": {
        "lon": 112.791313,
        "lat": -7.25969
      }
    },
    {
      "id": 1985548,
      "name": "Brongkalan",
      "coord": {
        "lon": 112.767403,
        "lat": -7.2575
      }
    },
    {
      "id": 1985980,
      "name": "Tenggilis Lama",
      "coord": {
        "lon": 112.762802,
        "lat": -7.3166
      }
    },
    {
      "id": 6410546,
      "name": "Bangun",
      "coord": {
        "lon": 111.311394,
        "lat": -7.36472
      }
    },
    {
      "id": 6777301,
      "name": "Bringin",
      "coord": {
        "lon": 111.903503,
        "lat": -7.0055
      }
    },
    {
      "id": 6777306,
      "name": "Waleran",
      "coord": {
        "lon": 111.9646,
        "lat": -7.0011
      }
    },
    {
      "id": 6777308,
      "name": "Gesikan",
      "coord": {
        "lon": 111.987198,
        "lat": -6.9994
      }
    },
    {
      "id": 6777752,
      "name": "Karangwungu",
      "coord": {
        "lon": 112.361198,
        "lat": -7.0003
      }
    },
    {
      "id": 6781788,
      "name": "Krajan Dermawuharjo",
      "coord": {
        "lon": 112.029503,
        "lat": -7.0062
      }
    },
    {
      "id": 6781792,
      "name": "Dempel",
      "coord": {
        "lon": 112.112198,
        "lat": -7.0013
      }
    },
    {
      "id": 6782223,
      "name": "Rungkut",
      "coord": {
        "lon": 112.352997,
        "lat": -7.2179
      }
    },
    {
      "id": 6786069,
      "name": "Tambakboyo",
      "coord": {
        "lon": 112.427101,
        "lat": -7.1337
      }
    },
    {
      "id": 6786208,
      "name": "Ngasin",
      "coord": {
        "lon": 112.458,
        "lat": -7.2245
      }
    },
    {
      "id": 6829676,
      "name": "Tlogosari",
      "coord": {
        "lon": 113.935303,
        "lat": -7.9993
      }
    },
    {
      "id": 6866208,
      "name": "Talok",
      "coord": {
        "lon": 111.746902,
        "lat": -7.1255
      }
    },
    {
      "id": 7034496,
      "name": "Tanggung",
      "coord": {
        "lon": 111.889198,
        "lat": -8.1318
      }
    },
    {
      "id": 7034500,
      "name": "Glodokan",
      "coord": {
        "lon": 111.9105,
        "lat": -8.1272
      }
    },
    {
      "id": 7034504,
      "name": "Wates",
      "coord": {
        "lon": 111.954102,
        "lat": -8.1326
      }
    },
    {
      "id": 7034509,
      "name": "Pandansari",
      "coord": {
        "lon": 111.982597,
        "lat": -8.1266
      }
    },
    {
      "id": 7034510,
      "name": "Sumberingin Kulon",
      "coord": {
        "lon": 111.989799,
        "lat": -8.1272
      }
    },
    {
      "id": 7034513,
      "name": "Selorejo",
      "coord": {
        "lon": 111.994499,
        "lat": -8.1382
      }
    },
    {
      "id": 7034516,
      "name": "Balesono",
      "coord": {
        "lon": 111.986198,
        "lat": -8.1393
      }
    },
    {
      "id": 7034517,
      "name": "Mirigambar",
      "coord": {
        "lon": 111.980698,
        "lat": -8.134
      }
    },
    {
      "id": 7034519,
      "name": "Sambidoplang",
      "coord": {
        "lon": 111.966499,
        "lat": -8.1377
      }
    },
    {
      "id": 7034531,
      "name": "Pojok",
      "coord": {
        "lon": 111.892799,
        "lat": -8.1415
      }
    },
    {
      "id": 7034542,
      "name": "Sambirejo",
      "coord": {
        "lon": 111.950104,
        "lat": -8.1453
      }
    },
    {
      "id": 7034543,
      "name": "Brandil",
      "coord": {
        "lon": 111.9562,
        "lat": -8.1454
      }
    },
    {
      "id": 7034545,
      "name": "Tunggangri",
      "coord": {
        "lon": 111.965599,
        "lat": -8.1491
      }
    },
    {
      "id": 7034551,
      "name": "Salakan Lor",
      "coord": {
        "lon": 111.9935,
        "lat": -8.157
      }
    },
    {
      "id": 7034563,
      "name": "Pelem",
      "coord": {
        "lon": 111.881798,
        "lat": -8.1581
      }
    },
    {
      "id": 7034567,
      "name": "Pagersari",
      "coord": {
        "lon": 111.923897,
        "lat": -8.1626
      }
    },
    {
      "id": 7034573,
      "name": "Jabon",
      "coord": {
        "lon": 111.965103,
        "lat": -8.1645
      }
    },
    {
      "id": 7034587,
      "name": "Ngejring",
      "coord": {
        "lon": 111.954498,
        "lat": -8.1724
      }
    },
    {
      "id": 7034588,
      "name": "Karangsonojabon",
      "coord": {
        "lon": 111.9561,
        "lat": -8.1689
      }
    },
    {
      "id": 7034598,
      "name": "Jatirejo",
      "coord": {
        "lon": 111.880096,
        "lat": -8.1822
      }
    },
    {
      "id": 7034605,
      "name": "Ngrejo",
      "coord": {
        "lon": 111.942703,
        "lat": -8.177
      }
    },
    {
      "id": 7034608,
      "name": "Karangtalun Lor",
      "coord": {
        "lon": 111.969398,
        "lat": -8.1798
      }
    },
    {
      "id": 7034610,
      "name": "Nganggrek",
      "coord": {
        "lon": 111.982903,
        "lat": -8.1811
      }
    },
    {
      "id": 7034621,
      "name": "Tumpakjoho",
      "coord": {
        "lon": 111.913902,
        "lat": -8.1864
      }
    },
    {
      "id": 7034642,
      "name": "Kedungdowo",
      "coord": {
        "lon": 111.975098,
        "lat": -8.203
      }
    },
    {
      "id": 7034669,
      "name": "Manding",
      "coord": {
        "lon": 111.982498,
        "lat": -8.2136
      }
    },
    {
      "id": 7034673,
      "name": "Tekik Wetan",
      "coord": {
        "lon": 111.957199,
        "lat": -8.2254
      }
    },
    {
      "id": 7034674,
      "name": "Tekikbanyuurip",
      "coord": {
        "lon": 111.950699,
        "lat": -8.2219
      }
    },
    {
      "id": 7034675,
      "name": "Darungan",
      "coord": {
        "lon": 111.9375,
        "lat": -8.2222
      }
    },
    {
      "id": 7034680,
      "name": "Tanggunggunung",
      "coord": {
        "lon": 111.875702,
        "lat": -8.2185
      }
    },
    {
      "id": 7034682,
      "name": "Krajan",
      "coord": {
        "lon": 111.884201,
        "lat": -8.2267
      }
    },
    {
      "id": 7034696,
      "name": "Kaligentong",
      "coord": {
        "lon": 111.989899,
        "lat": -8.2282
      }
    },
    {
      "id": 7034711,
      "name": "Jengglungharjo",
      "coord": {
        "lon": 111.895599,
        "lat": -8.241
      }
    },
    {
      "id": 7034770,
      "name": "Padangan",
      "coord": {
        "lon": 112.028397,
        "lat": -8.1288
      }
    },
    {
      "id": 7034774,
      "name": "Tenggur",
      "coord": {
        "lon": 112.045601,
        "lat": -8.1322
      }
    },
    {
      "id": 7034776,
      "name": "Banjarsari Kidul",
      "coord": {
        "lon": 112.056801,
        "lat": -8.1348
      }
    },
    {
      "id": 7034777,
      "name": "Tegalrejo",
      "coord": {
        "lon": 112.066299,
        "lat": -8.1325
      }
    },
    {
      "id": 7034780,
      "name": "Pakisrejo",
      "coord": {
        "lon": 112.078102,
        "lat": -8.129
      }
    },
    {
      "id": 7034781,
      "name": "Blimbing",
      "coord": {
        "lon": 112.085297,
        "lat": -8.1284
      }
    },
    {
      "id": 7034796,
      "name": "Tugu",
      "coord": {
        "lon": 112.030899,
        "lat": -8.1406
      }
    },
    {
      "id": 7034799,
      "name": "Bendorubuh",
      "coord": {
        "lon": 112.002602,
        "lat": -8.1377
      }
    },
    {
      "id": 7034800,
      "name": "Samir",
      "coord": {
        "lon": 112.001297,
        "lat": -8.147
      }
    },
    {
      "id": 7034805,
      "name": "Jatidowo",
      "coord": {
        "lon": 112.048599,
        "lat": -8.149
      }
    },
    {
      "id": 7034810,
      "name": "Sumberagung",
      "coord": {
        "lon": 112.106598,
        "lat": -8.1446
      }
    },
    {
      "id": 7034818,
      "name": "Purwodadi",
      "coord": {
        "lon": 112.078003,
        "lat": -8.156
      }
    },
    {
      "id": 7034823,
      "name": "Sukorejo",
      "coord": {
        "lon": 112.049004,
        "lat": -8.1574
      }
    },
    {
      "id": 7034827,
      "name": "Tenggong",
      "coord": {
        "lon": 112.026299,
        "lat": -8.1567
      }
    },
    {
      "id": 7034828,
      "name": "Karangsono",
      "coord": {
        "lon": 112.005898,
        "lat": -8.1537
      }
    },
    {
      "id": 7034830,
      "name": "Ngluweng Dua",
      "coord": {
        "lon": 112.000801,
        "lat": -8.1682
      }
    },
    {
      "id": 7034848,
      "name": "Sumberjo",
      "coord": {
        "lon": 112.106697,
        "lat": -8.1783
      }
    },
    {
      "id": 7034860,
      "name": "Demuk",
      "coord": {
        "lon": 112.003502,
        "lat": -8.1903
      }
    },
    {
      "id": 7034867,
      "name": "Maron",
      "coord": {
        "lon": 112.055397,
        "lat": -8.1972
      }
    },
    {
      "id": 7034868,
      "name": "Kebonsari",
      "coord": {
        "lon": 112.069298,
        "lat": -8.2002
      }
    },
    {
      "id": 7034879,
      "name": "Panggungduwet",
      "coord": {
        "lon": 112.032097,
        "lat": -8.2042
      }
    },
    {
      "id": 7034881,
      "name": "Panggunguni",
      "coord": {
        "lon": 112.002403,
        "lat": -8.2027
      }
    },
    {
      "id": 7034885,
      "name": "Pakisaji",
      "coord": {
        "lon": 112.056396,
        "lat": -8.2155
      }
    },
    {
      "id": 7034888,
      "name": "Bendosari",
      "coord": {
        "lon": 112.108101,
        "lat": -8.215
      }
    },
    {
      "id": 7034908,
      "name": "Sumberbendo",
      "coord": {
        "lon": 112.011803,
        "lat": -8.2303
      }
    },
    {
      "id": 7034912,
      "name": "Lorejo",
      "coord": {
        "lon": 112.119102,
        "lat": -8.2336
      }
    },
    {
      "id": 7034914,
      "name": "Kedungbanteng",
      "coord": {
        "lon": 112.092598,
        "lat": -8.2381
      }
    },
    {
      "id": 7034917,
      "name": "Ngrejo",
      "coord": {
        "lon": 112.081001,
        "lat": -8.2385
      }
    },
    {
      "id": 7034923,
      "name": "Miribanteng",
      "coord": {
        "lon": 112.027298,
        "lat": -8.2358
      }
    },
    {
      "id": 7034983,
      "name": "Kromengan",
      "coord": {
        "lon": 112.491096,
        "lat": -8.1296
      }
    },
    {
      "id": 7034990,
      "name": "Jatirejo",
      "coord": {
        "lon": 112.488899,
        "lat": -8.1273
      }
    },
    {
      "id": 7034997,
      "name": "Ngreco",
      "coord": {
        "lon": 112.449097,
        "lat": -8.1408
      }
    },
    {
      "id": 7034999,
      "name": "Sumberejo",
      "coord": {
        "lon": 112.436501,
        "lat": -8.1348
      }
    },
    {
      "id": 7035002,
      "name": "Sukoanyar",
      "coord": {
        "lon": 112.3927,
        "lat": -8.1393
      }
    },
    {
      "id": 7035003,
      "name": "Sembung",
      "coord": {
        "lon": 112.382599,
        "lat": -8.141
      }
    },
    {
      "id": 7035006,
      "name": "Krajan",
      "coord": {
        "lon": 112.376503,
        "lat": -8.1336
      }
    },
    {
      "id": 7035016,
      "name": "Krajan",
      "coord": {
        "lon": 112.491501,
        "lat": -8.1583
      }
    },
    {
      "id": 7035024,
      "name": "Bandung",
      "coord": {
        "lon": 112.4618,
        "lat": -8.1586
      }
    },
    {
      "id": 7035042,
      "name": "Barisan",
      "coord": {
        "lon": 112.425102,
        "lat": -8.1841
      }
    },
    {
      "id": 7035048,
      "name": "Kopral",
      "coord": {
        "lon": 112.454803,
        "lat": -8.1819
      }
    },
    {
      "id": 7035060,
      "name": "Dadapan",
      "coord": {
        "lon": 112.494301,
        "lat": -8.2059
      }
    },
    {
      "id": 7035066,
      "name": "Krajan",
      "coord": {
        "lon": 112.465103,
        "lat": -8.207
      }
    },
    {
      "id": 7035074,
      "name": "Sumbertimo",
      "coord": {
        "lon": 112.404297,
        "lat": -8.2165
      }
    },
    {
      "id": 7035092,
      "name": "Sukomulyo",
      "coord": {
        "lon": 112.379898,
        "lat": -8.2228
      }
    },
    {
      "id": 7035104,
      "name": "Krajan Dua Putukrejo",
      "coord": {
        "lon": 112.459,
        "lat": -8.2392
      }
    },
    {
      "id": 7035107,
      "name": "Krajan Satu",
      "coord": {
        "lon": 112.433701,
        "lat": -8.2353
      }
    },
    {
      "id": 7035119,
      "name": "Selorejo",
      "coord": {
        "lon": 112.425697,
        "lat": -8.1392
      }
    },
    {
      "id": 7035120,
      "name": "Kalipare",
      "coord": {
        "lon": 112.466301,
        "lat": -8.2066
      }
    },
    {
      "id": 7035192,
      "name": "Wonosari",
      "coord": {
        "lon": 112.353203,
        "lat": -8.0056
      }
    },
    {
      "id": 7035203,
      "name": "Ringinrejo",
      "coord": {
        "lon": 112.253998,
        "lat": -8.0195
      }
    },
    {
      "id": 7035210,
      "name": "Slumbung",
      "coord": {
        "lon": 112.345009,
        "lat": -8.01212
      }
    },
    {
      "id": 7035242,
      "name": "Purwosari",
      "coord": {
        "lon": 112.322502,
        "lat": -8.0353
      }
    },
    {
      "id": 7035256,
      "name": "Baos",
      "coord": {
        "lon": 112.323601,
        "lat": -8.0433
      }
    },
    {
      "id": 7035258,
      "name": "Sukosewu Satu",
      "coord": {
        "lon": 112.295799,
        "lat": -8.0428
      }
    },
    {
      "id": 7035261,
      "name": "Sumberagung Satu",
      "coord": {
        "lon": 112.277199,
        "lat": -8.0464
      }
    },
    {
      "id": 7035265,
      "name": "Tambakan",
      "coord": {
        "lon": 112.297997,
        "lat": -8.0566
      }
    },
    {
      "id": 7035270,
      "name": "Sendung",
      "coord": {
        "lon": 112.338203,
        "lat": -8.0551
      }
    },
    {
      "id": 7035286,
      "name": "Kotes",
      "coord": {
        "lon": 112.284821,
        "lat": -8.05637
      }
    },
    {
      "id": 7035289,
      "name": "Sanan",
      "coord": {
        "lon": 112.283203,
        "lat": -8.0675
      }
    },
    {
      "id": 7035291,
      "name": "Jajar",
      "coord": {
        "lon": 112.295601,
        "lat": -8.0727
      }
    },
    {
      "id": 7035295,
      "name": "Tembalang",
      "coord": {
        "lon": 112.334999,
        "lat": -8.0701
      }
    },
    {
      "id": 7035306,
      "name": "Plumbangan",
      "coord": {
        "lon": 112.340401,
        "lat": -8.0766
      }
    },
    {
      "id": 7035312,
      "name": "Gogolatar",
      "coord": {
        "lon": 112.304199,
        "lat": -8.0785
      }
    },
    {
      "id": 7035314,
      "name": "Kamulan",
      "coord": {
        "lon": 112.291199,
        "lat": -8.0811
      }
    },
    {
      "id": 7035319,
      "name": "Sonogunting",
      "coord": {
        "lon": 112.260498,
        "lat": -8.0839
      }
    },
    {
      "id": 7035323,
      "name": "Gogosuket",
      "coord": {
        "lon": 112.294403,
        "lat": -8.0896
      }
    },
    {
      "id": 7035326,
      "name": "Beru",
      "coord": {
        "lon": 112.319,
        "lat": -8.087
      }
    },
    {
      "id": 7035328,
      "name": "Pandean",
      "coord": {
        "lon": 112.32795,
        "lat": -8.09308
      }
    },
    {
      "id": 7035333,
      "name": "Suru",
      "coord": {
        "lon": 112.351898,
        "lat": -8.0933
      }
    },
    {
      "id": 7035361,
      "name": "Klemunan",
      "coord": {
        "lon": 112.334099,
        "lat": -8.0984
      }
    },
    {
      "id": 7035368,
      "name": "Tulungrejo",
      "coord": {
        "lon": 112.349197,
        "lat": -8.1116
      }
    },
    {
      "id": 7035370,
      "name": "Tegalrejo",
      "coord": {
        "lon": 112.321297,
        "lat": -8.1125
      }
    },
    {
      "id": 7035372,
      "name": "Sragi",
      "coord": {
        "lon": 112.298302,
        "lat": -8.1134
      }
    },
    {
      "id": 7035373,
      "name": "Wonorejo Dua",
      "coord": {
        "lon": 112.286903,
        "lat": -8.1136
      }
    },
    {
      "id": 7035377,
      "name": "Tumpang",
      "coord": {
        "lon": 112.254097,
        "lat": -8.1227
      }
    },
    {
      "id": 7035378,
      "name": "Jeblog Satu",
      "coord": {
        "lon": 112.262497,
        "lat": -8.1186
      }
    },
    {
      "id": 7035379,
      "name": "Bendosewu",
      "coord": {
        "lon": 112.272598,
        "lat": -8.1198
      }
    },
    {
      "id": 7035381,
      "name": "Duren",
      "coord": {
        "lon": 112.282799,
        "lat": -8.1213
      }
    },
    {
      "id": 7035384,
      "name": "Bukur",
      "coord": {
        "lon": 112.336197,
        "lat": -8.1214
      }
    },
    {
      "id": 7035389,
      "name": "Talun",
      "coord": {
        "lon": 112.285004,
        "lat": -8.0906
      }
    },
    {
      "id": 7035390,
      "name": "Gandusari",
      "coord": {
        "lon": 112.303001,
        "lat": -8.0457
      }
    },
    {
      "id": 7035391,
      "name": "Doko",
      "coord": {
        "lon": 112.372902,
        "lat": -8.0816
      }
    },
    {
      "id": 7035392,
      "name": "Beru",
      "coord": {
        "lon": 112.319,
        "lat": -8.087
      }
    },
    {
      "id": 7035479,
      "name": "Balerejo",
      "coord": {
        "lon": 112.376503,
        "lat": -8.0301
      }
    },
    {
      "id": 7035499,
      "name": "Sumberingin",
      "coord": {
        "lon": 112.464996,
        "lat": -8.0428
      }
    },
    {
      "id": 7035504,
      "name": "Ampelgading",
      "coord": {
        "lon": 112.445702,
        "lat": -8.0467
      }
    },
    {
      "id": 7035506,
      "name": "Kalimanis",
      "coord": {
        "lon": 112.437401,
        "lat": -8.045
      }
    },
    {
      "id": 7035508,
      "name": "Resapombo",
      "coord": {
        "lon": 112.4188,
        "lat": -8.0445
      }
    },
    {
      "id": 7035524,
      "name": "Tempursari Wetan",
      "coord": {
        "lon": 112.488503,
        "lat": -8.0522
      }
    },
    {
      "id": 7035532,
      "name": "Bumirejo",
      "coord": {
        "lon": 112.428101,
        "lat": -8.0593
      }
    },
    {
      "id": 7035536,
      "name": "Sidorejo",
      "coord": {
        "lon": 112.379799,
        "lat": -8.0743
      }
    },
    {
      "id": 7035554,
      "name": "Kemiri Gede",
      "coord": {
        "lon": 112.410004,
        "lat": -8.0763
      }
    },
    {
      "id": 7035558,
      "name": "Ringinrejo",
      "coord": {
        "lon": 112.387299,
        "lat": -8.0832
      }
    },
    {
      "id": 7035576,
      "name": "Jambuwerkrajan",
      "coord": {
        "lon": 112.462997,
        "lat": -8.0934
      }
    },
    {
      "id": 7035578,
      "name": "Sidomulyo",
      "coord": {
        "lon": 112.449203,
        "lat": -8.0926
      }
    },
    {
      "id": 7035582,
      "name": "Cungkup",
      "coord": {
        "lon": 112.426003,
        "lat": -8.0935
      }
    },
    {
      "id": 7035587,
      "name": "Tepas",
      "coord": {
        "lon": 112.394501,
        "lat": -8.0977
      }
    },
    {
      "id": 7035596,
      "name": "Tapakrejo",
      "coord": {
        "lon": 112.401703,
        "lat": -8.1094
      }
    },
    {
      "id": 7035611,
      "name": "Krandil",
      "coord": {
        "lon": 112.492897,
        "lat": -8.1129
      }
    },
    {
      "id": 7035613,
      "name": "Kertorejo",
      "coord": {
        "lon": 112.471703,
        "lat": -8.1085
      }
    },
    {
      "id": 7035618,
      "name": "Kepel",
      "coord": {
        "lon": 112.428902,
        "lat": -8.1157
      }
    },
    {
      "id": 7035619,
      "name": "Pakel",
      "coord": {
        "lon": 112.411201,
        "lat": -8.109
      }
    },
    {
      "id": 7035636,
      "name": "Wonosari",
      "coord": {
        "lon": 112.493797,
        "lat": -8.0283
      }
    },
    {
      "id": 7035858,
      "name": "Caper",
      "coord": {
        "lon": 111.612396,
        "lat": -7.1354
      }
    },
    {
      "id": 7035874,
      "name": "Demakan",
      "coord": {
        "lon": 111.604698,
        "lat": -7.1475
      }
    },
    {
      "id": 7035875,
      "name": "Batokan",
      "coord": {
        "lon": 111.6129,
        "lat": -7.1433
      }
    },
    {
      "id": 7035880,
      "name": "Kuncen",
      "coord": {
        "lon": 111.621498,
        "lat": -7.1572
      }
    },
    {
      "id": 7035903,
      "name": "Nguken",
      "coord": {
        "lon": 111.595398,
        "lat": -7.1609
      }
    },
    {
      "id": 7035906,
      "name": "Pengkok",
      "coord": {
        "lon": 111.609901,
        "lat": -7.1667
      }
    },
    {
      "id": 7035911,
      "name": "Mersodo",
      "coord": {
        "lon": 111.588898,
        "lat": -7.1788
      }
    },
    {
      "id": 7035923,
      "name": "Blimbing",
      "coord": {
        "lon": 111.600502,
        "lat": -7.1845
      }
    },
    {
      "id": 7035925,
      "name": "Gempol",
      "coord": {
        "lon": 111.613701,
        "lat": -7.1827
      }
    },
    {
      "id": 7035928,
      "name": "Sonorejo",
      "coord": {
        "lon": 111.623398,
        "lat": -7.1814
      }
    },
    {
      "id": 7035932,
      "name": "Ngeper",
      "coord": {
        "lon": 111.600601,
        "lat": -7.1919
      }
    },
    {
      "id": 7035935,
      "name": "Prangi",
      "coord": {
        "lon": 111.583504,
        "lat": -7.1874
      }
    },
    {
      "id": 7035938,
      "name": "Tebon",
      "coord": {
        "lon": 111.566803,
        "lat": -7.1883
      }
    },
    {
      "id": 7035971,
      "name": "Ketawang",
      "coord": {
        "lon": 111.563004,
        "lat": -7.2122
      }
    },
    {
      "id": 7035980,
      "name": "Purwa",
      "coord": {
        "lon": 111.544098,
        "lat": -7.2228
      }
    },
    {
      "id": 7035989,
      "name": "Tapelan",
      "coord": {
        "lon": 111.533501,
        "lat": -7.2283
      }
    },
    {
      "id": 7035993,
      "name": "Klempun",
      "coord": {
        "lon": 111.583702,
        "lat": -7.2292
      }
    },
    {
      "id": 7035995,
      "name": "Pengkol",
      "coord": {
        "lon": 111.593201,
        "lat": -7.2352
      }
    },
    {
      "id": 7036000,
      "name": "Pandan",
      "coord": {
        "lon": 111.564003,
        "lat": -7.2394
      }
    },
    {
      "id": 7036006,
      "name": "Ngori",
      "coord": {
        "lon": 111.545898,
        "lat": -7.2368
      }
    },
    {
      "id": 7036008,
      "name": "Mojorejo",
      "coord": {
        "lon": 111.521004,
        "lat": -7.2405
      }
    },
    {
      "id": 7036028,
      "name": "Batokan",
      "coord": {
        "lon": 111.6129,
        "lat": -7.1433
      }
    },
    {
      "id": 7036070,
      "name": "Sekaran",
      "coord": {
        "lon": 111.651901,
        "lat": -7.1271
      }
    },
    {
      "id": 7036071,
      "name": "Suroh",
      "coord": {
        "lon": 111.660202,
        "lat": -7.1335
      }
    },
    {
      "id": 7036074,
      "name": "Kliteh",
      "coord": {
        "lon": 111.702797,
        "lat": -7.1272
      }
    },
    {
      "id": 7036079,
      "name": "Celangap",
      "coord": {
        "lon": 111.725998,
        "lat": -7.1373
      }
    },
    {
      "id": 7036081,
      "name": "Cengungklung",
      "coord": {
        "lon": 111.713699,
        "lat": -7.1388
      }
    },
    {
      "id": 7036082,
      "name": "Telumbung",
      "coord": {
        "lon": 111.708099,
        "lat": -7.1375
      }
    },
    {
      "id": 7036087,
      "name": "Semanding",
      "coord": {
        "lon": 111.6856,
        "lat": -7.1441
      }
    },
    {
      "id": 7036091,
      "name": "Besah",
      "coord": {
        "lon": 111.639397,
        "lat": -7.1358
      }
    },
    {
      "id": 7036100,
      "name": "Kacangan Lor",
      "coord": {
        "lon": 111.6679,
        "lat": -7.147
      }
    },
    {
      "id": 7036103,
      "name": "Kembangan",
      "coord": {
        "lon": 111.690201,
        "lat": -7.1476
      }
    },
    {
      "id": 7036113,
      "name": "Katur",
      "coord": {
        "lon": 111.719101,
        "lat": -7.1586
      }
    },
    {
      "id": 7036124,
      "name": "Banjarjo",
      "coord": {
        "lon": 111.627197,
        "lat": -7.1585
      }
    },
    {
      "id": 7036126,
      "name": "Ketawang",
      "coord": {
        "lon": 111.625999,
        "lat": -7.1657
      }
    },
    {
      "id": 7036130,
      "name": "Tembeling",
      "coord": {
        "lon": 111.650703,
        "lat": -7.164
      }
    },
    {
      "id": 7036131,
      "name": "Dukuh Lor",
      "coord": {
        "lon": 111.660103,
        "lat": -7.1629
      }
    },
    {
      "id": 7036134,
      "name": "Bulu",
      "coord": {
        "lon": 111.675102,
        "lat": -7.1659
      }
    },
    {
      "id": 7036142,
      "name": "Ringintunggal",
      "coord": {
        "lon": 111.712402,
        "lat": -7.1703
      }
    },
    {
      "id": 7036143,
      "name": "Gayam",
      "coord": {
        "lon": 111.713699,
        "lat": -7.1764
      }
    },
    {
      "id": 7036149,
      "name": "Beged",
      "coord": {
        "lon": 111.668999,
        "lat": -7.1746
      }
    },
    {
      "id": 7036162,
      "name": "Bonorejo",
      "coord": {
        "lon": 111.679199,
        "lat": -7.1827
      }
    },
    {
      "id": 7036182,
      "name": "Dawung",
      "coord": {
        "lon": 111.692802,
        "lat": -7.2006
      }
    },
    {
      "id": 7036195,
      "name": "Gapluk",
      "coord": {
        "lon": 111.661903,
        "lat": -7.2048
      }
    },
    {
      "id": 7036199,
      "name": "Donan",
      "coord": {
        "lon": 111.637398,
        "lat": -7.2066
      }
    },
    {
      "id": 7036202,
      "name": "Tinumpuk",
      "coord": {
        "lon": 111.685699,
        "lat": -7.2118
      }
    },
    {
      "id": 7036205,
      "name": "Tlatah",
      "coord": {
        "lon": 111.701103,
        "lat": -7.2122
      }
    },
    {
      "id": 7036206,
      "name": "Ngrejeng",
      "coord": {
        "lon": 111.707603,
        "lat": -7.2174
      }
    },
    {
      "id": 7036225,
      "name": "Pelem",
      "coord": {
        "lon": 111.706497,
        "lat": -7.2407
      }
    },
    {
      "id": 7036231,
      "name": "Mojosawit",
      "coord": {
        "lon": 111.713097,
        "lat": -7.2477
      }
    },
    {
      "id": 7036234,
      "name": "Purwosari",
      "coord": {
        "lon": 111.658997,
        "lat": -7.1723
      }
    },
    {
      "id": 7036267,
      "name": "Wonocolo",
      "coord": {
        "lon": 111.670303,
        "lat": -7.0507
      }
    },
    {
      "id": 7036278,
      "name": "Ngrowo",
      "coord": {
        "lon": 111.6269,
        "lat": -7.0774
      }
    },
    {
      "id": 7036284,
      "name": "Tambakmerak",
      "coord": {
        "lon": 111.663803,
        "lat": -7.1155
      }
    },
    {
      "id": 7036285,
      "name": "Sendang",
      "coord": {
        "lon": 111.730797,
        "lat": -7.0067
      }
    },
    {
      "id": 7036290,
      "name": "Wanglu Kulon",
      "coord": {
        "lon": 111.7314,
        "lat": -7.0197
      }
    },
    {
      "id": 7036292,
      "name": "Wanglu Wetan",
      "coord": {
        "lon": 111.7332,
        "lat": -7.0241
      }
    },
    {
      "id": 7036295,
      "name": "Leran",
      "coord": {
        "lon": 111.718498,
        "lat": -7.0225
      }
    },
    {
      "id": 7036297,
      "name": "Medalem",
      "coord": {
        "lon": 111.713997,
        "lat": -7.0023
      }
    },
    {
      "id": 7036301,
      "name": "Sarang",
      "coord": {
        "lon": 111.700996,
        "lat": -7.0313
      }
    },